[
  {
    "id": 29,
    "name": "آذربایجان شرقی",
    "cities": [
      {
        "id": 74,
        "name": "تبریز",
        "lat": "38.071080",
        "lon": "46.293099"
      },
      {
        "id": 125,
        "name": "مراغه",
        "lat": "37.386368",
        "lon": "46.245583"
      },
      {
        "id": 126,
        "name": "مرند",
        "lat": "38.433716",
        "lon": "45.752117"
      },
      {
        "id": 127,
        "name": "میانه",
        "lat": "37.529396",
        "lon": "45.073513"
      },
      {
        "id": 129,
        "name": "شبستر",
        "lat": "38.17516",
        "lon": "45.702324"
      },
      {
        "id": 593,
        "name": "ارسگنای سفلی",
        "lat": null,
        "lon": null
      },
      {
        "id": 594,
        "name": "نصیرابادسفلی",
        "lat": "37.388023",
        "lon": "46.24082"
      },
      {
        "id": 595,
        "name": "سلوک",
        "lat": "38.051147",
        "lon": "46.339924"
      },
      {
        "id": 596,
        "name": "اتش بیگ",
        "lat": "38.552303",
        "lon": "44.93959"
      },
      {
        "id": 597,
        "name": "نظر کهریزی",
        "lat": "37.34787",
        "lon": "46.76202"
      },
      {
        "id": 600,
        "name": "اوشندل",
        "lat": null,
        "lon": null
      },
      {
        "id": 598,
        "name": "ذوالبین",
        "lat": null,
        "lon": null
      },
      {
        "id": 592,
        "name": "سلطان اباد (س انمکزار",
        "lat": "38.44253",
        "lon": "45.741222"
      },
      {
        "id": 599,
        "name": "علی ابادعلیا",
        "lat": "38.863937",
        "lon": "47.0359"
      },
      {
        "id": 602,
        "name": "لیلان",
        "lat": "36.73279",
        "lon": "45.70942"
      },
      {
        "id": 603,
        "name": "اق منار",
        "lat": "37.52212",
        "lon": "45.0664"
      },
      {
        "id": 604,
        "name": "اروق",
        "lat": null,
        "lon": null
      },
      {
        "id": 605,
        "name": "بایقوت",
        "lat": null,
        "lon": null
      },
      {
        "id": 606,
        "name": "لکلر",
        "lat": "38.0668",
        "lon": "46.28358"
      },
      {
        "id": 607,
        "name": "خانه برق قدیم (شورخانه ب",
        "lat": "36.6851",
        "lon": "45.128296"
      },
      {
        "id": 608,
        "name": "زوارق",
        "lat": "38.074474",
        "lon": "46.375217"
      },
      {
        "id": 601,
        "name": "طوراغای (طوراغایی )",
        "lat": null,
        "lon": null
      },
      {
        "id": 128,
        "name": "اسکو",
        "lat": "37.914684",
        "lon": "46.12934"
      },
      {
        "id": 590,
        "name": "ذاکر کندی",
        "lat": "37.54738",
        "lon": "45.041912"
      },
      {
        "id": 587,
        "name": "باغ زیارت",
        "lat": null,
        "lon": null
      },
      {
        "id": 130,
        "name": "بناب",
        "lat": "37.3349",
        "lon": "46.060093"
      },
      {
        "id": 131,
        "name": "سراب",
        "lat": "36.527954",
        "lon": "46.206993"
      },
      {
        "id": 132,
        "name": "اهر",
        "lat": "38.526936",
        "lon": "44.95109"
      },
      {
        "id": 133,
        "name": "ملکان",
        "lat": "37.153393",
        "lon": "46.104485"
      },
      {
        "id": 134,
        "name": "آذرشهر",
        "lat": "37.7662",
        "lon": "45.97767"
      },
      {
        "id": 135,
        "name": "بستان آباد",
        "lat": "36.40701",
        "lon": "47.11972"
      },
      {
        "id": 136,
        "name": "عجب شیر",
        "lat": "37.485313",
        "lon": "45.893078"
      },
      {
        "id": 589,
        "name": "قوچ احمد",
        "lat": "38.541008",
        "lon": "44.942356"
      },
      {
        "id": 137,
        "name": "هریس",
        "lat": "38.256916",
        "lon": "47.1176"
      },
      {
        "id": 139,
        "name": "هشترود",
        "lat": "38.026333",
        "lon": "46.40398"
      },
      {
        "id": 140,
        "name": "ورزقان",
        "lat": "38.475445",
        "lon": "47.0471"
      },
      {
        "id": 141,
        "name": "کلیبر",
        "lat": "38.858707",
        "lon": "47.041668"
      },
      {
        "id": 142,
        "name": "خداآفرین",
        "lat": null,
        "lon": null
      },
      {
        "id": 143,
        "name": "چاراویماق",
        "lat": null,
        "lon": null
      },
      {
        "id": 144,
        "name": "هوراند",
        "lat": "38.855614",
        "lon": "47.36824"
      },
      {
        "id": 591,
        "name": "قلعه حسین اباد",
        "lat": null,
        "lon": null
      },
      {
        "id": 138,
        "name": "جلفا",
        "lat": "38.935986",
        "lon": "45.634094"
      },
      {
        "id": 609,
        "name": "خوشه مهر (خواجه امیر)",
        "lat": "37.310318",
        "lon": "46.14209"
      },
      {
        "id": 610,
        "name": "روشت بزرگ",
        "lat": null,
        "lon": null
      },
      {
        "id": 612,
        "name": "زاوشت",
        "lat": null,
        "lon": null
      },
      {
        "id": 718,
        "name": "قره بلاغ-آذربایجان شرقی",
        "lat": "38.097412",
        "lon": "46.282"
      },
      {
        "id": 719,
        "name": "شیخدراباد",
        "lat": "38.058956",
        "lon": "46.313953"
      },
      {
        "id": 720,
        "name": "خاتون اباد-آذربایجان شرقی",
        "lat": "37.426235",
        "lon": "47.716084"
      },
      {
        "id": 721,
        "name": "ترکمانچای",
        "lat": "37.585762",
        "lon": "47.390553"
      },
      {
        "id": 722,
        "name": "ترک",
        "lat": "37.5675",
        "lon": "45.1052"
      },
      {
        "id": 723,
        "name": "اغچه ریش",
        "lat": "38.06822",
        "lon": "46.296864"
      },
      {
        "id": 724,
        "name": "قره آغاج",
        "lat": "38.081486",
        "lon": "46.24884"
      },
      {
        "id": 717,
        "name": "آقکند",
        "lat": "37.258865",
        "lon": "48.0541"
      },
      {
        "id": 728,
        "name": "هادیشهر",
        "lat": "38.83559",
        "lon": "45.675488"
      },
      {
        "id": 732,
        "name": "شهرجدیدسهند",
        "lat": "37.943584",
        "lon": "46.129246"
      },
      {
        "id": 733,
        "name": "مراغه-آذربایجان شرقی",
        "lat": null,
        "lon": null
      },
      {
        "id": 731,
        "name": "سردرود",
        "lat": "38.037647",
        "lon": "46.164818"
      },
      {
        "id": 716,
        "name": "اچاچی",
        "lat": "37.393234",
        "lon": "47.782253"
      },
      {
        "id": 714,
        "name": "پورسخلو",
        "lat": null,
        "lon": null
      },
      {
        "id": 698,
        "name": "کندرود",
        "lat": "38.006207",
        "lon": "46.46742"
      },
      {
        "id": 699,
        "name": "شادبادمشایخ (پینه شلوا",
        "lat": "38.200603",
        "lon": "44.75618"
      },
      {
        "id": 700,
        "name": "باسمنج",
        "lat": "37.99806",
        "lon": "46.470497"
      },
      {
        "id": 701,
        "name": "ینگی اسپران (سفیدان جد",
        "lat": "38.07079",
        "lon": "46.379925"
      },
      {
        "id": 702,
        "name": "خلجان",
        "lat": "38.03743",
        "lon": "46.164757"
      },
      {
        "id": 703,
        "name": "کجوار",
        "lat": "38.415764",
        "lon": "45.773716"
      },
      {
        "id": 704,
        "name": "سرای (سرای ده )",
        "lat": "37.553345",
        "lon": "45.012344"
      },
      {
        "id": 715,
        "name": "گوندوغدی",
        "lat": null,
        "lon": null
      },
      {
        "id": 705,
        "name": "ایلخچی",
        "lat": "37.938114",
        "lon": "45.979492"
      },
      {
        "id": 707,
        "name": "لاهیجان-آذربایجان شرقی",
        "lat": "38.053043",
        "lon": "46.25443"
      },
      {
        "id": 708,
        "name": "خسرو شهر",
        "lat": "37.954197",
        "lon": "46.036938"
      },
      {
        "id": 709,
        "name": "اربط",
        "lat": "38.55149",
        "lon": "44.914494"
      },
      {
        "id": 710,
        "name": "کهنمو",
        "lat": "38.482872",
        "lon": "47.060047"
      },
      {
        "id": 711,
        "name": "ارموداق",
        "lat": null,
        "lon": null
      },
      {
        "id": 712,
        "name": "قویوجاق",
        "lat": null,
        "lon": null
      },
      {
        "id": 713,
        "name": "کنگاور-آذربایجان شرقی",
        "lat": null,
        "lon": null
      },
      {
        "id": 706,
        "name": "خاص اباد (خاصبان )",
        "lat": "38.03654",
        "lon": "46.381527"
      },
      {
        "id": 697,
        "name": "مایان سفلی",
        "lat": "38.480007",
        "lon": "47.077778"
      },
      {
        "id": 611,
        "name": "القو",
        "lat": null,
        "lon": null
      },
      {
        "id": 696,
        "name": "تیمورلو",
        "lat": "37.806797",
        "lon": "45.898113"
      },
      {
        "id": 694,
        "name": "قدمگاه (بادام یار)",
        "lat": "38.54507",
        "lon": "44.93583"
      },
      {
        "id": 634,
        "name": "اردها",
        "lat": null,
        "lon": null
      },
      {
        "id": 635,
        "name": "اغمیون",
        "lat": null,
        "lon": null
      },
      {
        "id": 636,
        "name": "رازلیق",
        "lat": null,
        "lon": null
      },
      {
        "id": 637,
        "name": "مهربان",
        "lat": "37.56344",
        "lon": "45.049168"
      },
      {
        "id": 638,
        "name": "شربیان",
        "lat": "38.067455",
        "lon": "46.292507"
      },
      {
        "id": 639,
        "name": "دوزدوزان",
        "lat": "38.078274",
        "lon": "46.31882"
      },
      {
        "id": 640,
        "name": "ابرغان",
        "lat": "38.066174",
        "lon": "46.32369"
      },
      {
        "id": 633,
        "name": "قره چای حاج علی",
        "lat": "38.425266",
        "lon": "45.752037"
      },
      {
        "id": 641,
        "name": "اسبفروشان",
        "lat": null,
        "lon": null
      },
      {
        "id": 643,
        "name": "تیل",
        "lat": null,
        "lon": null
      },
      {
        "id": 644,
        "name": "کندوان",
        "lat": null,
        "lon": null
      },
      {
        "id": 645,
        "name": "شهرک صنعتی کاغذکنان",
        "lat": "38.00827",
        "lon": "46.25676"
      },
      {
        "id": 646,
        "name": "یوزبند",
        "lat": null,
        "lon": null
      },
      {
        "id": 647,
        "name": "آبش احمد",
        "lat": "39.049335",
        "lon": "47.31848"
      },
      {
        "id": 648,
        "name": "اسکلو (اسگلو)",
        "lat": "38.06508",
        "lon": "46.2685"
      },
      {
        "id": 649,
        "name": "عاشقلو",
        "lat": "38.98553",
        "lon": "46.70014"
      },
      {
        "id": 642,
        "name": "لاریجان",
        "lat": "39.30355",
        "lon": "47.196857"
      },
      {
        "id": 650,
        "name": "خمارلو",
        "lat": "39.155594",
        "lon": "47.031338"
      },
      {
        "id": 632,
        "name": "قره بابا",
        "lat": "37.38598",
        "lon": "46.245716"
      },
      {
        "id": 629,
        "name": "الانق",
        "lat": "36.501102",
        "lon": "46.19992"
      },
      {
        "id": 613,
        "name": "رحمانلو",
        "lat": "36.400745",
        "lon": "47.11054"
      },
      {
        "id": 614,
        "name": "دانالو",
        "lat": null,
        "lon": null
      },
      {
        "id": 615,
        "name": "خانیان",
        "lat": "37.381443",
        "lon": "46.246506"
      },
      {
        "id": 616,
        "name": "مهماندار",
        "lat": "37.420418",
        "lon": "47.716114"
      },
      {
        "id": 617,
        "name": "ینگجه",
        "lat": null,
        "lon": null
      },
      {
        "id": 618,
        "name": "خضرلو",
        "lat": "37.50843",
        "lon": "45.05905"
      },
      {
        "id": 619,
        "name": "شیراز-آذربایجان شرقی",
        "lat": "38.05753",
        "lon": "46.35031"
      },
      {
        "id": 631,
        "name": "سعیداباد-آذربایجان شرقی",
        "lat": "38.08602",
        "lon": "46.326473"
      },
      {
        "id": 620,
        "name": "علویان",
        "lat": "37.942314",
        "lon": "46.13189"
      },
      {
        "id": 622,
        "name": "داش بلاغ بازار",
        "lat": "38.073616",
        "lon": "46.288372"
      },
      {
        "id": 623,
        "name": "داش اتان",
        "lat": "37.566746",
        "lon": "45.072292"
      },
      {
        "id": 624,
        "name": "خداجو",
        "lat": "37.30526",
        "lon": "46.526955"
      },
      {
        "id": 625,
        "name": "گل تپه-آذربایجان شرقی",
        "lat": "38.840134",
        "lon": "45.65364"
      },
      {
        "id": 626,
        "name": "ورجوی",
        "lat": "37.39088",
        "lon": "46.21535"
      },
      {
        "id": 627,
        "name": "قره چمن",
        "lat": "37.38927",
        "lon": "46.22986"
      },
      {
        "id": 628,
        "name": "کردکندی",
        "lat": "37.956432",
        "lon": "46.956158"
      },
      {
        "id": 621,
        "name": "صومعه",
        "lat": null,
        "lon": null
      },
      {
        "id": 695,
        "name": "خراجو",
        "lat": "38.542862",
        "lon": "44.94836"
      },
      {
        "id": 651,
        "name": "مولان",
        "lat": "38.076267",
        "lon": "46.25586"
      },
      {
        "id": 655,
        "name": "سیه کلان",
        "lat": "37.545822",
        "lon": "45.068794"
      },
      {
        "id": 678,
        "name": "بخشایش",
        "lat": "38.55696",
        "lon": "44.984608"
      },
      {
        "id": 679,
        "name": "کلوانق",
        "lat": "38.103195",
        "lon": "47.00105"
      },
      {
        "id": 680,
        "name": "مینق",
        "lat": null,
        "lon": null
      },
      {
        "id": 681,
        "name": "شرفخانه",
        "lat": "37.553917",
        "lon": "45.07523"
      },
      {
        "id": 682,
        "name": "تسوج",
        "lat": "38.30934",
        "lon": "45.367416"
      },
      {
        "id": 683,
        "name": "شند آباد",
        "lat": "36.689663",
        "lon": "45.154778"
      },
      {
        "id": 684,
        "name": "صوفیان",
        "lat": "38.269966",
        "lon": "45.985386"
      },
      {
        "id": 677,
        "name": "سرند",
        "lat": "38.08015",
        "lon": "46.302208"
      },
      {
        "id": 685,
        "name": "سیس",
        "lat": "37.549526",
        "lon": "45.066257"
      },
      {
        "id": 687,
        "name": "کوزه کنان",
        "lat": "38.18846",
        "lon": "45.577084"
      },
      {
        "id": 688,
        "name": "امند",
        "lat": null,
        "lon": null
      },
      {
        "id": 689,
        "name": "وایقان",
        "lat": "38.1355",
        "lon": "45.701027"
      },
      {
        "id": 690,
        "name": "هفت چشمه-آذربایجان شرقی",
        "lat": "38.100403",
        "lon": "46.247143"
      },
      {
        "id": 691,
        "name": "شیرامین",
        "lat": "37.512733",
        "lon": "45.084103"
      },
      {
        "id": 692,
        "name": "ممقان",
        "lat": "37.837357",
        "lon": "45.9678"
      },
      {
        "id": 693,
        "name": "گوگان",
        "lat": "37.797264",
        "lon": "45.95354"
      },
      {
        "id": 686,
        "name": "خامنه",
        "lat": "38.069542",
        "lon": "46.30978"
      },
      {
        "id": 653,
        "name": "اق براز",
        "lat": "38.037796",
        "lon": "46.34959"
      },
      {
        "id": 676,
        "name": "زرنق",
        "lat": "38.09838",
        "lon": "47.075207"
      },
      {
        "id": 674,
        "name": "گلین قیه",
        "lat": "37.552944",
        "lon": "45.076015"
      },
      {
        "id": 658,
        "name": "اذغان (ازغان )",
        "lat": null,
        "lon": null
      },
      {
        "id": 659,
        "name": "افیل",
        "lat": null,
        "lon": null
      },
      {
        "id": 660,
        "name": "ورگهان",
        "lat": null,
        "lon": null
      },
      {
        "id": 661,
        "name": "چول قشلاقی",
        "lat": "37.414722",
        "lon": "47.7158"
      },
      {
        "id": 662,
        "name": "خاروانا",
        "lat": "38.690674",
        "lon": "46.17046"
      },
      {
        "id": 663,
        "name": "کشکسرای",
        "lat": "38.459606",
        "lon": "45.569244"
      },
      {
        "id": 664,
        "name": "نوجه مهر",
        "lat": null,
        "lon": null
      },
      {
        "id": 675,
        "name": "بیلوردی",
        "lat": null,
        "lon": null
      },
      {
        "id": 665,
        "name": "سیه رود",
        "lat": "37.52531",
        "lon": "45.044987"
      },
      {
        "id": 667,
        "name": "شجاع",
        "lat": "37.395775",
        "lon": "46.231876"
      },
      {
        "id": 668,
        "name": "یامچی",
        "lat": "38.52198",
        "lon": "45.643658"
      },
      {
        "id": 669,
        "name": "یکان کهریز",
        "lat": "38.5496",
        "lon": "44.97695"
      },
      {
        "id": 670,
        "name": "دولت اباد-آذربایجان شرقی",
        "lat": "36.516266",
        "lon": "46.220154"
      },
      {
        "id": 671,
        "name": "زنوز",
        "lat": "38.071224",
        "lon": "46.32522"
      },
      {
        "id": 672,
        "name": "بناب جدید",
        "lat": "38.426155",
        "lon": "45.90853"
      },
      {
        "id": 673,
        "name": "هرزندجدید (چای هرزند)",
        "lat": null,
        "lon": null
      },
      {
        "id": 666,
        "name": "داران-آذربایجان شرقی",
        "lat": "38.097412",
        "lon": "46.282"
      }
    ]
  },
  {
    "id": 28,
    "name": "آذربایجان غربی",
    "cities": [
      {
        "id": 146,
        "name": "ارومیه",
        "lat": "37.365",
        "lon": "46.260048"
      },
      {
        "id": 2771,
        "name": "سایر",
        "lat": "38.03551",
        "lon": "46.193108"
      },
      {
        "id": 2769,
        "name": "تازه شهر",
        "lat": "38.175667",
        "lon": "44.69343"
      },
      {
        "id": 2767,
        "name": "دیزج دیز",
        "lat": null,
        "lon": null
      },
      {
        "id": 2748,
        "name": "تویی",
        "lat": "37.5642",
        "lon": "45.065487"
      },
      {
        "id": 2749,
        "name": "زیوه",
        "lat": null,
        "lon": null
      },
      {
        "id": 2750,
        "name": "دیزج-آذربایجان غربی",
        "lat": "38.094154",
        "lon": "46.261333"
      },
      {
        "id": 2751,
        "name": "هاشم اباد",
        "lat": "37.398994",
        "lon": "46.22925"
      },
      {
        "id": 2752,
        "name": "راژان",
        "lat": "38.072247",
        "lon": "46.231457"
      },
      {
        "id": 2753,
        "name": "سیلوانه",
        "lat": "37.42146",
        "lon": "44.85605"
      },
      {
        "id": 2754,
        "name": "طلاتپه",
        "lat": null,
        "lon": null
      },
      {
        "id": 2768,
        "name": "فیرورق",
        "lat": "38.579845",
        "lon": "44.840084"
      },
      {
        "id": 2755,
        "name": "نوشین",
        "lat": "38.081867",
        "lon": "46.318462"
      },
      {
        "id": 2757,
        "name": "ایبلو",
        "lat": "38.55043",
        "lon": "44.98453"
      },
      {
        "id": 2758,
        "name": "میاوق",
        "lat": "37.538948",
        "lon": "45.083046"
      },
      {
        "id": 2759,
        "name": "باراندوز",
        "lat": null,
        "lon": null
      },
      {
        "id": 2763,
        "name": "سیلوه",
        "lat": "37.377792",
        "lon": "46.23788"
      },
      {
        "id": 2764,
        "name": "قوشچی",
        "lat": "37.988396",
        "lon": "45.03579"
      },
      {
        "id": 2765,
        "name": "جلدیان",
        "lat": null,
        "lon": null
      },
      {
        "id": 2766,
        "name": "ایواوغلی",
        "lat": "38.71672",
        "lon": "45.208546"
      },
      {
        "id": 2756,
        "name": "دستجرد-آذربایجان غربی",
        "lat": "38.48894",
        "lon": "47.04924"
      },
      {
        "id": 2747,
        "name": "موانا",
        "lat": "38.070744",
        "lon": "46.379868"
      },
      {
        "id": 2746,
        "name": "قره باغ",
        "lat": "38.09974",
        "lon": "46.296326"
      },
      {
        "id": 2744,
        "name": "امام کندی",
        "lat": "36.956505",
        "lon": "45.378082"
      },
      {
        "id": 2686,
        "name": "تمر",
        "lat": null,
        "lon": null
      },
      {
        "id": 2687,
        "name": "قره قشلاق",
        "lat": "37.414722",
        "lon": "47.7158"
      },
      {
        "id": 2688,
        "name": "وردان",
        "lat": "36.52885",
        "lon": "46.218372"
      },
      {
        "id": 2689,
        "name": "حسن کندی",
        "lat": "37.53576",
        "lon": "45.04221"
      },
      {
        "id": 2690,
        "name": "نازک علیا",
        "lat": "39.011063",
        "lon": "45.05815"
      },
      {
        "id": 2692,
        "name": "مرگنلر",
        "lat": "39.144394",
        "lon": "44.94871"
      },
      {
        "id": 2694,
        "name": "قرنقو",
        "lat": null,
        "lon": null
      },
      {
        "id": 2685,
        "name": "ابگرم-آذربایجان غربی",
        "lat": null,
        "lon": null
      },
      {
        "id": 2695,
        "name": "سیه چشمه",
        "lat": "39.06094",
        "lon": "44.38872"
      },
      {
        "id": 2697,
        "name": "قم قشلاق",
        "lat": "37.392963",
        "lon": "46.243664"
      },
      {
        "id": 2698,
        "name": "بازرگان",
        "lat": "38.044353",
        "lon": "46.369976"
      },
      {
        "id": 2699,
        "name": "آواجیق",
        "lat": "38.101395",
        "lon": "46.29324"
      },
      {
        "id": 2700,
        "name": "زاویه سفلی",
        "lat": "38.051582",
        "lon": "46.239044"
      },
      {
        "id": 2701,
        "name": "ریحانلوی علیا",
        "lat": "38.425266",
        "lon": "45.752037"
      },
      {
        "id": 2702,
        "name": "قره تپه",
        "lat": "36.765564",
        "lon": "45.728954"
      },
      {
        "id": 2703,
        "name": "بسطام-آذربایجان غربی",
        "lat": "38.552563",
        "lon": "44.955635"
      },
      {
        "id": 2696,
        "name": "یولاگلدی",
        "lat": "39.284714",
        "lon": "44.817757"
      },
      {
        "id": 2704,
        "name": "قورول علیا",
        "lat": "38.425266",
        "lon": "45.752037"
      },
      {
        "id": 2684,
        "name": "سرنق",
        "lat": null,
        "lon": null
      },
      {
        "id": 2682,
        "name": "داراب-آذربایجان غربی",
        "lat": "37.5362",
        "lon": "45.0712"
      },
      {
        "id": 2665,
        "name": "اوزون دره علیا",
        "lat": null,
        "lon": null
      },
      {
        "id": 2666,
        "name": "اگریقاش",
        "lat": null,
        "lon": null
      },
      {
        "id": 2667,
        "name": "سیاقول علیا",
        "lat": "38.425266",
        "lon": "45.752037"
      },
      {
        "id": 2668,
        "name": "کاولان علیا",
        "lat": "38.425266",
        "lon": "45.752037"
      },
      {
        "id": 2669,
        "name": "خلیفان",
        "lat": "37.777653",
        "lon": "45.906597"
      },
      {
        "id": 2670,
        "name": "خورخوره-آذربایجان غربی",
        "lat": null,
        "lon": null
      },
      {
        "id": 2671,
        "name": "باغچه",
        "lat": "38.02011",
        "lon": "46.37447"
      },
      {
        "id": 2683,
        "name": "چهریق علیا",
        "lat": "38.425266",
        "lon": "45.752037"
      },
      {
        "id": 2674,
        "name": "حاجی کند",
        "lat": "38.006207",
        "lon": "46.46742"
      },
      {
        "id": 2677,
        "name": "حاجی حسن",
        "lat": "38.087276",
        "lon": "46.304264"
      },
      {
        "id": 2770,
        "name": "گوگ تپه-آذربایجان غربی",
        "lat": null,
        "lon": null
      },
      {
        "id": 2676,
        "name": "سوگلی تپه",
        "lat": "38.06105",
        "lon": "46.36154"
      },
      {
        "id": 2678,
        "name": "خاتون باغ",
        "lat": "38.435383",
        "lon": "45.76633"
      },
      {
        "id": 2679,
        "name": "سنجی",
        "lat": "36.777847",
        "lon": "45.714066"
      },
      {
        "id": 2680,
        "name": "اغ برزه",
        "lat": null,
        "lon": null
      },
      {
        "id": 2681,
        "name": "دلزی",
        "lat": null,
        "lon": null
      },
      {
        "id": 2675,
        "name": "گلیجه",
        "lat": "36.951977",
        "lon": "45.388374"
      },
      {
        "id": 2745,
        "name": "بهله",
        "lat": "37.55389",
        "lon": "45.059605"
      },
      {
        "id": 2705,
        "name": "چورس",
        "lat": null,
        "lon": null
      },
      {
        "id": 2707,
        "name": "شیرین بلاغ",
        "lat": null,
        "lon": null
      },
      {
        "id": 2728,
        "name": "سیاوان",
        "lat": "38.07094",
        "lon": "46.343884"
      },
      {
        "id": 2729,
        "name": "لولکان",
        "lat": null,
        "lon": null
      },
      {
        "id": 2730,
        "name": "گلاز",
        "lat": "38.062836",
        "lon": "46.335484"
      },
      {
        "id": 2731,
        "name": "ده شمس بزرگ",
        "lat": "38.0511",
        "lon": "46.206"
      },
      {
        "id": 2732,
        "name": "نالوس",
        "lat": "36.982964",
        "lon": "45.14454"
      },
      {
        "id": 2733,
        "name": "شاهوانه",
        "lat": "36.699722",
        "lon": "45.14386"
      },
      {
        "id": 2734,
        "name": "راهدانه",
        "lat": null,
        "lon": null
      },
      {
        "id": 2727,
        "name": "کله کین",
        "lat": "37.51339",
        "lon": "45.044853"
      },
      {
        "id": 2735,
        "name": "بیگم قلعه",
        "lat": null,
        "lon": null
      },
      {
        "id": 2737,
        "name": "محمدیار",
        "lat": "37.555435",
        "lon": "45.07919"
      },
      {
        "id": 2738,
        "name": "کهریزعجم",
        "lat": "38.5496",
        "lon": "44.97695"
      },
      {
        "id": 2739,
        "name": "حسنلو",
        "lat": "38.55306",
        "lon": "44.980267"
      },
      {
        "id": 2740,
        "name": "ممکان",
        "lat": null,
        "lon": null
      },
      {
        "id": 2741,
        "name": "کانسپی",
        "lat": null,
        "lon": null
      },
      {
        "id": 2742,
        "name": "سرو",
        "lat": "37.551197",
        "lon": "45.00192"
      },
      {
        "id": 2743,
        "name": "نازلو",
        "lat": "38.066757",
        "lon": "46.275032"
      },
      {
        "id": 2736,
        "name": "شیخ احمد",
        "lat": "36.965572",
        "lon": "46.09567"
      },
      {
        "id": 2706,
        "name": "مراکان",
        "lat": null,
        "lon": null
      },
      {
        "id": 2726,
        "name": "شین اباد",
        "lat": "36.689663",
        "lon": "45.154778"
      },
      {
        "id": 2724,
        "name": "بیکوس",
        "lat": "36.511684",
        "lon": "46.204933"
      },
      {
        "id": 2708,
        "name": "قره ضیاءالدین",
        "lat": "38.88885",
        "lon": "45.02406"
      },
      {
        "id": 2709,
        "name": "قطور",
        "lat": "38.468662",
        "lon": "44.40197"
      },
      {
        "id": 2710,
        "name": "استران",
        "lat": "38.55244",
        "lon": "44.933086"
      },
      {
        "id": 2711,
        "name": "زرآباد",
        "lat": "38.931538",
        "lon": "45.608425"
      },
      {
        "id": 2712,
        "name": "بلسورسفلی",
        "lat": null,
        "lon": null
      },
      {
        "id": 2713,
        "name": "بدلان",
        "lat": "37.50557",
        "lon": "45.051502"
      },
      {
        "id": 2714,
        "name": "هندوان",
        "lat": "38.55815",
        "lon": "44.93045"
      },
      {
        "id": 2725,
        "name": "چیانه",
        "lat": "37.927185",
        "lon": "46.12247"
      },
      {
        "id": 2715,
        "name": "قوروق",
        "lat": null,
        "lon": null
      },
      {
        "id": 2717,
        "name": "بیله وار",
        "lat": "37.47926",
        "lon": "45.894943"
      },
      {
        "id": 2718,
        "name": "سیه باز",
        "lat": "37.54598",
        "lon": "45.07791"
      },
      {
        "id": 2719,
        "name": "احمدغریب",
        "lat": "36.784283",
        "lon": "45.730465"
      },
      {
        "id": 2720,
        "name": "ریگ اباد",
        "lat": null,
        "lon": null
      },
      {
        "id": 2721,
        "name": "پسوه",
        "lat": null,
        "lon": null
      },
      {
        "id": 2722,
        "name": "گردکشانه",
        "lat": "36.812695",
        "lon": "45.27893"
      },
      {
        "id": 2723,
        "name": "هنگ اباد",
        "lat": null,
        "lon": null
      },
      {
        "id": 2716,
        "name": "ولدیان",
        "lat": null,
        "lon": null
      },
      {
        "id": 2664,
        "name": "یکشوه",
        "lat": null,
        "lon": null
      },
      {
        "id": 2663,
        "name": "جوانمرد",
        "lat": "37.573658",
        "lon": "45.074955"
      },
      {
        "id": 2661,
        "name": "سیمینه",
        "lat": "36.49943",
        "lon": "46.19508"
      },
      {
        "id": 2662,
        "name": "اختتر",
        "lat": "38.556164",
        "lon": "44.955395"
      },
      {
        "id": 2608,
        "name": "حمزه قاسم23",
        "lat": "38.087177",
        "lon": "46.31618"
      },
      {
        "id": 147,
        "name": "خوی",
        "lat": "38.5361",
        "lon": "44.931286"
      },
      {
        "id": 148,
        "name": "میاندوآب",
        "lat": "36.967396",
        "lon": "46.103756"
      },
      {
        "id": 149,
        "name": "بوکان",
        "lat": "38.099216",
        "lon": "46.27683"
      },
      {
        "id": 150,
        "name": "مهاباد",
        "lat": "38.087303",
        "lon": "46.314465"
      },
      {
        "id": 151,
        "name": "سلماس",
        "lat": "38.0869",
        "lon": "46.30051"
      },
      {
        "id": 153,
        "name": "نقده",
        "lat": "36.95558",
        "lon": "45.386227"
      },
      {
        "id": 2645,
        "name": "تک اغاج",
        "lat": "38.081486",
        "lon": "46.24884"
      },
      {
        "id": 2646,
        "name": "گوگ تپه خالصه",
        "lat": "37.529324",
        "lon": "45.077972"
      },
      {
        "id": 2647,
        "name": "چهار برج",
        "lat": "37.12327",
        "lon": "45.976456"
      },
      {
        "id": 2648,
        "name": "بگتاش",
        "lat": "38.12066",
        "lon": "46.283333"
      },
      {
        "id": 2649,
        "name": "للکلو",
        "lat": null,
        "lon": null
      },
      {
        "id": 2650,
        "name": "ملاشهاب الدین",
        "lat": null,
        "lon": null
      },
      {
        "id": 2651,
        "name": "اقبال",
        "lat": "38.067883",
        "lon": "46.251354"
      },
      {
        "id": 2644,
        "name": "هاچاسو",
        "lat": null,
        "lon": null
      },
      {
        "id": 2652,
        "name": "کشاورز",
        "lat": "37.33725",
        "lon": "46.06217"
      },
      {
        "id": 2654,
        "name": "زمزیران",
        "lat": null,
        "lon": null
      },
      {
        "id": 2655,
        "name": "میرآباد",
        "lat": "36.40427",
        "lon": "45.374317"
      },
      {
        "id": 2656,
        "name": "بیوران سفلی",
        "lat": "36.156937",
        "lon": "45.476013"
      },
      {
        "id": 2657,
        "name": "اسلام اباد-آذربایجان غربی",
        "lat": "38.05351",
        "lon": "46.253323"
      },
      {
        "id": 2658,
        "name": "شلماش",
        "lat": "38.0869",
        "lon": "46.30051"
      },
      {
        "id": 2659,
        "name": "گل تپه قورمیش",
        "lat": "38.840134",
        "lon": "45.65364"
      },
      {
        "id": 2660,
        "name": "رحیم خان",
        "lat": "38.050938",
        "lon": "46.361763"
      },
      {
        "id": 2653,
        "name": "ربط",
        "lat": "38.55149",
        "lon": "44.914494"
      },
      {
        "id": 152,
        "name": "پیرانشهر",
        "lat": "36.952545",
        "lon": "45.379047"
      },
      {
        "id": 2643,
        "name": "هولاسو",
        "lat": null,
        "lon": null
      },
      {
        "id": 2641,
        "name": "محمودآباد-آذربایجان غربی",
        "lat": "38.051548",
        "lon": "46.31289"
      },
      {
        "id": 154,
        "name": "سردشت",
        "lat": "36.157997",
        "lon": "45.4727"
      },
      {
        "id": 155,
        "name": "ماکو",
        "lat": "39.28859",
        "lon": "44.517403"
      },
      {
        "id": 156,
        "name": "شاهین دژ",
        "lat": "36.677704",
        "lon": "46.56842"
      },
      {
        "id": 157,
        "name": "تکاب",
        "lat": "36.401443",
        "lon": "47.11204"
      },
      {
        "id": 158,
        "name": "اشنویه",
        "lat": "37.03872",
        "lon": "45.096123"
      },
      {
        "id": 159,
        "name": "شوط",
        "lat": "39.220528",
        "lon": "44.768223"
      },
      {
        "id": 160,
        "name": "چایپاره",
        "lat": null,
        "lon": null
      },
      {
        "id": 2642,
        "name": "قوزلوی افشار",
        "lat": "37.5324",
        "lon": "45.052994"
      },
      {
        "id": 161,
        "name": "چالدران",
        "lat": "39.06094",
        "lon": "44.38872"
      },
      {
        "id": 163,
        "name": "باروق",
        "lat": "38.06593",
        "lon": "46.306168"
      },
      {
        "id": 2604,
        "name": "احمدابادسفلی",
        "lat": "38.090466",
        "lon": "46.330685"
      },
      {
        "id": 2605,
        "name": "اقابیگ",
        "lat": "38.423073",
        "lon": "45.771214"
      },
      {
        "id": 2606,
        "name": "دورباش",
        "lat": null,
        "lon": null
      },
      {
        "id": 2607,
        "name": "اوغول بیگ",
        "lat": "38.55291",
        "lon": "44.937344"
      },
      {
        "id": 2609,
        "name": "حیدرباغی",
        "lat": "38.101303",
        "lon": "46.29161"
      },
      {
        "id": 2639,
        "name": "الی چین",
        "lat": "38.560574",
        "lon": "44.95134"
      },
      {
        "id": 162,
        "name": "پلدشت",
        "lat": "39.342346",
        "lon": "45.070576"
      }
    ]
  },
  {
    "id": 27,
    "name": "اردبیل",
    "cities": [
      {
        "id": 164,
        "name": "اردبیل",
        "lat": "38.24887",
        "lon": "48.29554"
      },
      {
        "id": 809,
        "name": "تازه کندانگوت",
        "lat": "39.043793",
        "lon": "47.74503"
      },
      {
        "id": 810,
        "name": "انی علیا",
        "lat": "38.239582",
        "lon": "48.290108"
      },
      {
        "id": 811,
        "name": "زهرا",
        "lat": "38.249187",
        "lon": "48.258453"
      },
      {
        "id": 812,
        "name": "دیزج",
        "lat": "38.246346",
        "lon": "48.287323"
      },
      {
        "id": 813,
        "name": "اراللوی بزرگ",
        "lat": "38.225243",
        "lon": "48.267094"
      },
      {
        "id": 814,
        "name": "بقراباد",
        "lat": "38.246128",
        "lon": "48.316853"
      },
      {
        "id": 815,
        "name": "مهماندوست علیا",
        "lat": "38.233486",
        "lon": "48.296196"
      },
      {
        "id": 816,
        "name": "هیر",
        "lat": "38.237164",
        "lon": "48.272636"
      },
      {
        "id": 818,
        "name": "کورائیم",
        "lat": "38.237564",
        "lon": "48.290833"
      },
      {
        "id": 817,
        "name": "اسلام اباد",
        "lat": "38.268597",
        "lon": "48.250965"
      },
      {
        "id": 808,
        "name": "پریخان",
        "lat": "38.246346",
        "lon": "48.287323"
      },
      {
        "id": 807,
        "name": "قصابه",
        "lat": "38.385536",
        "lon": "47.546078"
      },
      {
        "id": 805,
        "name": "لاهرود",
        "lat": "38.51196",
        "lon": "47.832336"
      },
      {
        "id": 806,
        "name": "فخرآباد",
        "lat": "38.52486",
        "lon": "47.862064"
      },
      {
        "id": 165,
        "name": "پارس آباد",
        "lat": "38.246128",
        "lon": "48.316853"
      },
      {
        "id": 167,
        "name": "خلخال",
        "lat": "37.620804",
        "lon": "48.52516"
      },
      {
        "id": 771,
        "name": "هشتجین",
        "lat": "37.369972",
        "lon": "48.32287"
      },
      {
        "id": 772,
        "name": "خلفلو",
        "lat": "38.246346",
        "lon": "48.287323"
      },
      {
        "id": 774,
        "name": "گیوی",
        "lat": "37.692677",
        "lon": "48.3377"
      },
      {
        "id": 777,
        "name": "فیروزاباد",
        "lat": "38.271828",
        "lon": "48.26949"
      },
      {
        "id": 781,
        "name": "لنبر",
        "lat": "38.246346",
        "lon": "48.287323"
      },
      {
        "id": 785,
        "name": "نظرعلی بلاغی",
        "lat": "38.246346",
        "lon": "48.287323"
      },
      {
        "id": 788,
        "name": "شورگل",
        "lat": "38.246346",
        "lon": "48.287323"
      },
      {
        "id": 764,
        "name": "کلور",
        "lat": "38.231888",
        "lon": "48.276276"
      },
      {
        "id": 792,
        "name": "خورخورسفلی",
        "lat": "38.246346",
        "lon": "48.287323"
      },
      {
        "id": 796,
        "name": "جعفر آباد",
        "lat": "39.427868",
        "lon": "48.105083"
      },
      {
        "id": 798,
        "name": "انجیرلو",
        "lat": "38.254585",
        "lon": "48.307735"
      },
      {
        "id": 799,
        "name": "گوگ تپه",
        "lat": "38.246346",
        "lon": "48.287323"
      },
      {
        "id": 801,
        "name": "گنجوبه",
        "lat": "38.246346",
        "lon": "48.287323"
      },
      {
        "id": 802,
        "name": "مرادلو",
        "lat": "38.747643",
        "lon": "47.74544"
      },
      {
        "id": 803,
        "name": "قوشه سفلی",
        "lat": "38.246346",
        "lon": "48.287323"
      },
      {
        "id": 804,
        "name": "رضی",
        "lat": "38.21753",
        "lon": "48.316723"
      },
      {
        "id": 793,
        "name": "قشلاق اغداش کلام",
        "lat": "38.259666",
        "lon": "48.283794"
      },
      {
        "id": 166,
        "name": "مشکین شهر",
        "lat": "38.39675",
        "lon": "47.673527"
      },
      {
        "id": 760,
        "name": "شهرک غفاری",
        "lat": "38.250027",
        "lon": "48.27796"
      },
      {
        "id": 763,
        "name": "گوشلو",
        "lat": "38.246346",
        "lon": "48.287323"
      },
      {
        "id": 168,
        "name": "گرمی",
        "lat": "38.237564",
        "lon": "48.290833"
      },
      {
        "id": 169,
        "name": "نمین",
        "lat": "38.422714",
        "lon": "48.482155"
      },
      {
        "id": 170,
        "name": "بیله سوار",
        "lat": "39.378662",
        "lon": "48.36773"
      },
      {
        "id": 657,
        "name": "نیر",
        "lat": "38.0338",
        "lon": "48.005486"
      },
      {
        "id": 172,
        "name": "کوثر",
        "lat": "38.19266",
        "lon": "48.27734"
      },
      {
        "id": 173,
        "name": "سرعین",
        "lat": "38.1466",
        "lon": "48.07315"
      },
      {
        "id": 174,
        "name": "عنبران",
        "lat": "38.488846",
        "lon": "48.433144"
      },
      {
        "id": 762,
        "name": "اق قباق علیا",
        "lat": "38.233486",
        "lon": "48.296196"
      },
      {
        "id": 171,
        "name": "نیل",
        "lat": "38.246346",
        "lon": "48.287323"
      },
      {
        "id": 751,
        "name": "ننه کران",
        "lat": "38.22327",
        "lon": "48.315704"
      },
      {
        "id": 753,
        "name": "گرده",
        "lat": "38.246346",
        "lon": "48.287323"
      },
      {
        "id": 755,
        "name": "ثمرین",
        "lat": "38.383114",
        "lon": "47.68346"
      },
      {
        "id": 756,
        "name": "اردیموسی",
        "lat": "38.200386",
        "lon": "48.132576"
      },
      {
        "id": 757,
        "name": "بران علیا",
        "lat": "38.233486",
        "lon": "48.296196"
      },
      {
        "id": 758,
        "name": "اصلاندوز",
        "lat": "39.437157",
        "lon": "47.40451"
      },
      {
        "id": 767,
        "name": "برندق",
        "lat": "38.246346",
        "lon": "48.287323"
      },
      {
        "id": 750,
        "name": "آبی بیگلو",
        "lat": "38.284046",
        "lon": "48.554317"
      }
    ]
  },
  {
    "id": 26,
    "name": "اصفهان",
    "cities": [
      {
        "id": 175,
        "name": "اصفهان",
        "lat": "32.65773",
        "lon": "51.703537"
      },
      {
        "id": 185,
        "name": "سمیرم",
        "lat": "31.405712",
        "lon": "51.57163"
      },
      {
        "id": 186,
        "name": "شاهین شهر و میمه",
        "lat": "33.44427",
        "lon": "51.17331"
      },
      {
        "id": 187,
        "name": "شهرضا",
        "lat": "32.643513",
        "lon": "51.68464"
      },
      {
        "id": 188,
        "name": "دهاقان",
        "lat": "32.6325",
        "lon": "51.65683"
      },
      {
        "id": 189,
        "name": "فریدن",
        "lat": "32.68064",
        "lon": "51.63497"
      },
      {
        "id": 190,
        "name": "فریدون شهر",
        "lat": "32.65773",
        "lon": "51.703537"
      },
      {
        "id": 191,
        "name": "فلاورجان",
        "lat": "32.558167",
        "lon": "51.522"
      },
      {
        "id": 184,
        "name": "خور و بیابانک",
        "lat": null,
        "lon": null
      },
      {
        "id": 192,
        "name": "کاشان",
        "lat": "32.654972",
        "lon": "51.652992"
      },
      {
        "id": 194,
        "name": "لنجان",
        "lat": "32.644802",
        "lon": "51.64285"
      },
      {
        "id": 195,
        "name": "مبارکه",
        "lat": "32.395454",
        "lon": "51.3836"
      },
      {
        "id": 196,
        "name": "نایین",
        "lat": "32.71772",
        "lon": "52.41994"
      },
      {
        "id": 197,
        "name": "نجف آباد",
        "lat": "32.626087",
        "lon": "51.66799"
      },
      {
        "id": 198,
        "name": "نطنز",
        "lat": "33.507366",
        "lon": "51.924698"
      },
      {
        "id": 199,
        "name": "منطقه صنعتی محموداباد",
        "lat": "32.710644",
        "lon": "51.617588"
      },
      {
        "id": 829,
        "name": "مورچه خورت",
        "lat": "33.221607",
        "lon": "50.317104"
      },
      {
        "id": 193,
        "name": "گلپایگان",
        "lat": "33.476875",
        "lon": "50.355175"
      },
      {
        "id": 830,
        "name": "دولت آباد-اصفهان",
        "lat": "32.65773",
        "lon": "51.703537"
      },
      {
        "id": 183,
        "name": "خوانسار",
        "lat": "32.621876",
        "lon": "51.677"
      },
      {
        "id": 181,
        "name": "چادگان",
        "lat": "32.83831",
        "lon": "50.57349"
      },
      {
        "id": 182,
        "name": "خمینی شهر",
        "lat": "32.684277",
        "lon": "51.528767"
      },
      {
        "id": 176,
        "name": "آران و بیدگل",
        "lat": "34.05636",
        "lon": "51.479694"
      },
      {
        "id": 177,
        "name": "اردستان",
        "lat": "32.699295",
        "lon": "51.732533"
      },
      {
        "id": 178,
        "name": "برخوار",
        "lat": null,
        "lon": null
      },
      {
        "id": 179,
        "name": "شهرستان بوئین و میاندشت",
        "lat": null,
        "lon": null
      },
      {
        "id": 180,
        "name": "تیران و کرون",
        "lat": null,
        "lon": null
      },
      {
        "id": 831,
        "name": "میمه-اصفهان",
        "lat": "32.65773",
        "lon": "51.703537"
      },
      {
        "id": 833,
        "name": "کوهپایه",
        "lat": "32.665962",
        "lon": "51.678978"
      },
      {
        "id": 858,
        "name": "بهارستان",
        "lat": "32.714466",
        "lon": "51.66151"
      },
      {
        "id": 859,
        "name": "خوراسگان",
        "lat": "32.612873",
        "lon": "51.703335"
      },
      {
        "id": 860,
        "name": "گورت",
        "lat": "32.652943",
        "lon": "51.61531"
      },
      {
        "id": 861,
        "name": "دستجا",
        "lat": "32.68321",
        "lon": "51.714893"
      },
      {
        "id": 862,
        "name": "زیار",
        "lat": "32.6763",
        "lon": "51.6883"
      },
      {
        "id": 863,
        "name": "نصرآباد-اصفهان",
        "lat": "32.65773",
        "lon": "51.703537"
      },
      {
        "id": 864,
        "name": "ابریشم",
        "lat": "33.96702",
        "lon": "51.416763"
      },
      {
        "id": 857,
        "name": "سگزی",
        "lat": "32.682533",
        "lon": "52.124058"
      },
      {
        "id": 865,
        "name": "سپاهان شهر",
        "lat": "32.537502",
        "lon": "51.65615"
      },
      {
        "id": 867,
        "name": "پالایشگاه اصفهان",
        "lat": null,
        "lon": null
      },
      {
        "id": 868,
        "name": "کلهرود",
        "lat": "32.65773",
        "lon": "51.703537"
      },
      {
        "id": 869,
        "name": "گرگاب",
        "lat": "32.683743",
        "lon": "51.717644"
      },
      {
        "id": 870,
        "name": "دستگرد-اصفهان",
        "lat": "32.708263",
        "lon": "51.72504"
      },
      {
        "id": 871,
        "name": "گز برخوار",
        "lat": "32.80889",
        "lon": "51.62131"
      },
      {
        "id": 872,
        "name": "خورزوق",
        "lat": "32.731293",
        "lon": "51.67069"
      },
      {
        "id": 873,
        "name": "حبیب آباد",
        "lat": "32.834106",
        "lon": "51.76415"
      },
      {
        "id": 866,
        "name": "پادگان اموزشی امام ص",
        "lat": "32.640976",
        "lon": "51.64035"
      },
      {
        "id": 832,
        "name": "خور-اصفهان",
        "lat": "32.65773",
        "lon": "51.703537"
      },
      {
        "id": 856,
        "name": "تودشک",
        "lat": "32.702114",
        "lon": "51.837727"
      },
      {
        "id": 854,
        "name": "قمصر-اصفهان",
        "lat": "32.65773",
        "lon": "51.703537"
      },
      {
        "id": 834,
        "name": "نائین",
        "lat": "32.71772",
        "lon": "52.41994"
      },
      {
        "id": 835,
        "name": "درچه پیاز",
        "lat": "32.61642",
        "lon": "51.557568"
      },
      {
        "id": 836,
        "name": "زواره",
        "lat": "32.662193",
        "lon": "51.6617"
      },
      {
        "id": 837,
        "name": "قهدریجان",
        "lat": "32.59547",
        "lon": "51.4757"
      },
      {
        "id": 839,
        "name": "زرین شهر",
        "lat": "32.329506",
        "lon": "51.229797"
      },
      {
        "id": 1761,
        "name": "گلشهر",
        "lat": "32.65644",
        "lon": "51.65434"
      },
      {
        "id": 841,
        "name": "مبارکه-اصفهان",
        "lat": "32.65773",
        "lon": "51.703537"
      },
      {
        "id": 855,
        "name": "گوگد",
        "lat": "33.46076",
        "lon": "50.377113"
      },
      {
        "id": 842,
        "name": "فولادشهر",
        "lat": "32.50431",
        "lon": "51.394825"
      },
      {
        "id": 845,
        "name": "دهق",
        "lat": "33.106434",
        "lon": "50.952442"
      },
      {
        "id": 846,
        "name": "علویجه",
        "lat": "32.686165",
        "lon": "51.611824"
      },
      {
        "id": 847,
        "name": "داران-اصفهان",
        "lat": "32.65773",
        "lon": "51.703537"
      },
      {
        "id": 850,
        "name": "اسفرجان",
        "lat": "32.65773",
        "lon": "51.703537"
      },
      {
        "id": 851,
        "name": "حنا",
        "lat": "32.6724",
        "lon": "51.64438"
      },
      {
        "id": 852,
        "name": "مهرگرد",
        "lat": "32.65773",
        "lon": "51.703537"
      },
      {
        "id": 853,
        "name": "جوشقان استرک",
        "lat": "33.358406",
        "lon": "52.36536"
      },
      {
        "id": 844,
        "name": "تیران",
        "lat": "32.671913",
        "lon": "51.657238"
      },
      {
        "id": 874,
        "name": "موته",
        "lat": "32.646484",
        "lon": "51.643135"
      },
      {
        "id": 875,
        "name": "وزوان",
        "lat": "32.65617",
        "lon": "51.717346"
      },
      {
        "id": 877,
        "name": "رباط اقا کمال",
        "lat": null,
        "lon": null
      },
      {
        "id": 876,
        "name": "لای بید",
        "lat": "33.457912",
        "lon": "50.694824"
      },
      {
        "id": 978,
        "name": "برف انبار",
        "lat": "32.5941",
        "lon": "51.674892"
      },
      {
        "id": 979,
        "name": "قمشلو",
        "lat": "32.65773",
        "lon": "51.703537"
      },
      {
        "id": 980,
        "name": "پوده",
        "lat": "30.948608",
        "lon": "51.653465"
      },
      {
        "id": 981,
        "name": "مهیار",
        "lat": "32.634094",
        "lon": "51.690174"
      },
      {
        "id": 982,
        "name": "پرزان",
        "lat": "32.66818",
        "lon": "51.62339"
      },
      {
        "id": 983,
        "name": "منوچهراباد",
        "lat": "32.66058",
        "lon": "51.696922"
      },
      {
        "id": 984,
        "name": "شهرک صنایع شیمیایی ر",
        "lat": "32.708595",
        "lon": "51.55599"
      },
      {
        "id": 977,
        "name": "مصیر",
        "lat": "32.65773",
        "lon": "51.703537"
      },
      {
        "id": 985,
        "name": "همگین",
        "lat": null,
        "lon": null
      },
      {
        "id": 987,
        "name": "کهرویه",
        "lat": "32.65773",
        "lon": "51.703537"
      },
      {
        "id": 988,
        "name": "قصرچم",
        "lat": "32.65773",
        "lon": "51.703537"
      },
      {
        "id": 989,
        "name": "امین اباد",
        "lat": "32.742016",
        "lon": "51.563828"
      },
      {
        "id": 990,
        "name": "مقصودبیک",
        "lat": "32.64949",
        "lon": "51.686226"
      },
      {
        "id": 991,
        "name": "سولار",
        "lat": "32.67705",
        "lon": "51.71442"
      },
      {
        "id": 992,
        "name": "منظریه",
        "lat": "32.69263",
        "lon": "51.470287"
      },
      {
        "id": 993,
        "name": "گرموک",
        "lat": "32.65773",
        "lon": "51.703537"
      },
      {
        "id": 986,
        "name": "گلشن-اصفهان",
        "lat": "32.638775",
        "lon": "51.71986"
      },
      {
        "id": 994,
        "name": "هست",
        "lat": "32.65773",
        "lon": "51.703537"
      },
      {
        "id": 976,
        "name": "اسلام ابادموگویی",
        "lat": "32.698673",
        "lon": "51.6277"
      },
      {
        "id": 974,
        "name": "نهضت اباد",
        "lat": "32.698673",
        "lon": "51.6277"
      },
      {
        "id": 958,
        "name": "دامنه",
        "lat": "32.475494",
        "lon": "51.77175"
      },
      {
        "id": 959,
        "name": "زرنه-اصفهان",
        "lat": "32.65607",
        "lon": "51.641823"
      },
      {
        "id": 960,
        "name": "بلطاق",
        "lat": null,
        "lon": null
      },
      {
        "id": 961,
        "name": "کرچ",
        "lat": "32.862644",
        "lon": "53.08211"
      },
      {
        "id": 962,
        "name": "قره بلطاق",
        "lat": "33.380074",
        "lon": "52.361313"
      },
      {
        "id": 963,
        "name": "افوس",
        "lat": "33.023117",
        "lon": "50.092087"
      },
      {
        "id": 964,
        "name": "سازمان عمران زاینده رود",
        "lat": "32.6428",
        "lon": "51.708"
      },
      {
        "id": 975,
        "name": "قلعه سرخ",
        "lat": null,
        "lon": null
      },
      {
        "id": 965,
        "name": "مشهدکاوه",
        "lat": "32.631424",
        "lon": "51.722633"
      },
      {
        "id": 967,
        "name": "رزوه",
        "lat": "32.673637",
        "lon": "51.742805"
      },
      {
        "id": 968,
        "name": "نهرخلج",
        "lat": "32.65773",
        "lon": "51.703537"
      },
      {
        "id": 969,
        "name": "چاه غلامرضارحیمی",
        "lat": "33.989487",
        "lon": "51.433235"
      },
      {
        "id": 970,
        "name": "اورگان-اصفهان",
        "lat": "32.65773",
        "lon": "51.703537"
      },
      {
        "id": 971,
        "name": "گلدشت-اصفهان",
        "lat": "32.65773",
        "lon": "51.703537"
      },
      {
        "id": 972,
        "name": "جوزدان",
        "lat": "32.658413",
        "lon": "51.643185"
      },
      {
        "id": 973,
        "name": "کهریزسنگ",
        "lat": "32.64177",
        "lon": "51.631847"
      },
      {
        "id": 966,
        "name": "اسکندری",
        "lat": "32.676952",
        "lon": "51.643436"
      },
      {
        "id": 957,
        "name": "غرغن",
        "lat": "32.65773",
        "lon": "51.703537"
      },
      {
        "id": 995,
        "name": "ونک",
        "lat": "31.527697",
        "lon": "51.325928"
      },
      {
        "id": 997,
        "name": "کمه",
        "lat": "31.07081",
        "lon": "51.592262"
      },
      {
        "id": 1019,
        "name": "برزک",
        "lat": "33.789307",
        "lon": "51.22477"
      },
      {
        "id": 1020,
        "name": "وادقان",
        "lat": "32.65773",
        "lon": "51.703537"
      },
      {
        "id": 1021,
        "name": "اذان",
        "lat": "32.687744",
        "lon": "51.69919"
      },
      {
        "id": 1022,
        "name": "طرق رود",
        "lat": "33.36404",
        "lon": "51.78879"
      },
      {
        "id": 1023,
        "name": "اریسمان",
        "lat": "32.666134",
        "lon": "51.661976"
      },
      {
        "id": 1024,
        "name": "ابیانه",
        "lat": "32.631958",
        "lon": "51.68725"
      },
      {
        "id": 1025,
        "name": "بادرود",
        "lat": "33.690163",
        "lon": "52.004654"
      },
      {
        "id": 1018,
        "name": "جوشقان و کامو",
        "lat": "33.57522",
        "lon": "51.20107"
      },
      {
        "id": 1026,
        "name": "خالدآ باد",
        "lat": "33.707836",
        "lon": "51.984543"
      },
      {
        "id": 1028,
        "name": "ملازجان",
        "lat": null,
        "lon": null
      },
      {
        "id": 1029,
        "name": "سعیداباد-اصفهان",
        "lat": "32.620235",
        "lon": "51.579697"
      },
      {
        "id": 1030,
        "name": "مرغ",
        "lat": null,
        "lon": null
      },
      {
        "id": 1031,
        "name": "قرغن",
        "lat": "32.65773",
        "lon": "51.703537"
      },
      {
        "id": 1032,
        "name": "کوچری",
        "lat": "32.60311",
        "lon": "51.648216"
      },
      {
        "id": 1033,
        "name": "کلوچان",
        "lat": "32.86453",
        "lon": "53.083527"
      },
      {
        "id": 1034,
        "name": "زرنجان",
        "lat": "32.651855",
        "lon": "51.683823"
      },
      {
        "id": 1027,
        "name": "اوره",
        "lat": "33.52118",
        "lon": "51.879417"
      },
      {
        "id": 996,
        "name": "کهنگان",
        "lat": "32.65773",
        "lon": "51.703537"
      },
      {
        "id": 1017,
        "name": "قهرود",
        "lat": "33.953995",
        "lon": "51.41429"
      },
      {
        "id": 1015,
        "name": "ابوزیدآباد",
        "lat": "33.90391",
        "lon": "51.76772"
      },
      {
        "id": 999,
        "name": "چهارراه",
        "lat": "32.6719",
        "lon": "51.699265"
      },
      {
        "id": 1000,
        "name": "ده نسا سفلی",
        "lat": "32.644493",
        "lon": "51.75179"
      },
      {
        "id": 1001,
        "name": "اغداش",
        "lat": "32.65773",
        "lon": "51.703537"
      },
      {
        "id": 1002,
        "name": "ورق",
        "lat": "32.65773",
        "lon": "51.703537"
      },
      {
        "id": 1003,
        "name": "سعادت اباد",
        "lat": "32.622257",
        "lon": "51.665226"
      },
      {
        "id": 1004,
        "name": "فتح اباد-اصفهان",
        "lat": "32.65773",
        "lon": "51.703537"
      },
      {
        "id": 1005,
        "name": "نیاسر",
        "lat": "33.9798",
        "lon": "51.1533"
      },
      {
        "id": 1016,
        "name": "کاغذی",
        "lat": "33.8939",
        "lon": "51.779938"
      },
      {
        "id": 1006,
        "name": "سن سن",
        "lat": "32.665646",
        "lon": "51.670174"
      },
      {
        "id": 1008,
        "name": "رحق",
        "lat": "32.65773",
        "lon": "51.703537"
      },
      {
        "id": 1009,
        "name": "اب شیرین",
        "lat": "32.664566",
        "lon": "51.65391"
      },
      {
        "id": 1010,
        "name": "نشلج",
        "lat": "32.65773",
        "lon": "51.703537"
      },
      {
        "id": 1011,
        "name": "مشکات",
        "lat": "34.17733",
        "lon": "51.26194"
      },
      {
        "id": 1012,
        "name": "سفیدشهر",
        "lat": "34.12374",
        "lon": "51.35239"
      },
      {
        "id": 1013,
        "name": "مزرعه صدر",
        "lat": "32.65773",
        "lon": "51.703537"
      },
      {
        "id": 1014,
        "name": "نوش آباد",
        "lat": "34.002575",
        "lon": "51.438286"
      },
      {
        "id": 1007,
        "name": "ده زیره",
        "lat": "32.47889",
        "lon": "51.40867"
      },
      {
        "id": 1035,
        "name": "وانشان",
        "lat": "32.65773",
        "lon": "51.703537"
      },
      {
        "id": 956,
        "name": "حسین اباد-اصفهان",
        "lat": "32.62259",
        "lon": "51.636242"
      },
      {
        "id": 954,
        "name": "اشن",
        "lat": "32.63992",
        "lon": "51.581657"
      },
      {
        "id": 898,
        "name": "ومکان",
        "lat": "32.669918",
        "lon": "51.710022"
      },
      {
        "id": 899,
        "name": "همسار",
        "lat": "32.65773",
        "lon": "51.703537"
      },
      {
        "id": 900,
        "name": "فسخود",
        "lat": "32.65773",
        "lon": "51.703537"
      },
      {
        "id": 901,
        "name": "فوداز",
        "lat": "32.65773",
        "lon": "51.703537"
      },
      {
        "id": 902,
        "name": "اشکستان",
        "lat": "32.63992",
        "lon": "51.581657"
      },
      {
        "id": 903,
        "name": "کجان",
        "lat": "32.693085",
        "lon": "51.612682"
      },
      {
        "id": 904,
        "name": "نیستانک",
        "lat": "32.664948",
        "lon": "51.628624"
      },
      {
        "id": 897,
        "name": "نیسیان",
        "lat": "32.661377",
        "lon": "51.642296"
      },
      {
        "id": 905,
        "name": "انارک",
        "lat": "33.308628",
        "lon": "53.696526"
      },
      {
        "id": 907,
        "name": "تیرانچی",
        "lat": "33.97335",
        "lon": "51.451008"
      },
      {
        "id": 908,
        "name": "کوشک-اصفهان",
        "lat": "32.65773",
        "lon": "51.703537"
      },
      {
        "id": 909,
        "name": "قلعه امیریه",
        "lat": "32.638603",
        "lon": "51.53557"
      },
      {
        "id": 910,
        "name": "مهاباد-اصفهان",
        "lat": "32.638775",
        "lon": "51.71986"
      },
      {
        "id": 911,
        "name": "درقه",
        "lat": "32.65773",
        "lon": "51.703537"
      },
      {
        "id": 912,
        "name": "شهراب-اصفهان",
        "lat": "32.708263",
        "lon": "51.72504"
      },
      {
        "id": 913,
        "name": "تورزن",
        "lat": "32.6304",
        "lon": "51.67496"
      },
      {
        "id": 906,
        "name": "بافران",
        "lat": "32.667397",
        "lon": "51.642548"
      },
      {
        "id": 914,
        "name": "کریم اباد-اصفهان",
        "lat": "32.646885",
        "lon": "51.683052"
      },
      {
        "id": 896,
        "name": "نهوج",
        "lat": "32.65773",
        "lon": "51.703537"
      },
      {
        "id": 894,
        "name": "کچومثقال",
        "lat": "32.65773",
        "lon": "51.703537"
      },
      {
        "id": 878,
        "name": "خسرواباد-اصفهان",
        "lat": "32.643925",
        "lon": "51.68572"
      },
      {
        "id": 879,
        "name": "کمشچه",
        "lat": "32.90521",
        "lon": "51.809364"
      },
      {
        "id": 880,
        "name": "جندق",
        "lat": "32.728107",
        "lon": "51.649216"
      },
      {
        "id": 881,
        "name": "فرخی",
        "lat": "32.723316",
        "lon": "51.64299"
      },
      {
        "id": 882,
        "name": "مزیک",
        "lat": "32.65773",
        "lon": "51.703537"
      },
      {
        "id": 883,
        "name": "مهرجان",
        "lat": "32.663063",
        "lon": "51.69828"
      },
      {
        "id": 884,
        "name": "بیاضه",
        "lat": "32.65773",
        "lon": "51.703537"
      },
      {
        "id": 895,
        "name": "ظفرقند",
        "lat": "32.65773",
        "lon": "51.703537"
      },
      {
        "id": 885,
        "name": "چوپانان",
        "lat": "32.69399",
        "lon": "51.620617"
      },
      {
        "id": 887,
        "name": "محمدآباد-اصفهان",
        "lat": "32.65773",
        "lon": "51.703537"
      },
      {
        "id": 888,
        "name": "هرند",
        "lat": "32.571095",
        "lon": "52.437996"
      },
      {
        "id": 889,
        "name": "ورزنه",
        "lat": "32.664913",
        "lon": "51.677242"
      },
      {
        "id": 890,
        "name": "قهجاورستان",
        "lat": "32.7044",
        "lon": "51.8356"
      },
      {
        "id": 891,
        "name": "نیک آباد",
        "lat": "32.698673",
        "lon": "51.6277"
      },
      {
        "id": 892,
        "name": "اژیه",
        "lat": "32.444782",
        "lon": "52.38222"
      },
      {
        "id": 893,
        "name": "حسن اباد-اصفهان",
        "lat": "32.65773",
        "lon": "51.703537"
      },
      {
        "id": 886,
        "name": "بلان",
        "lat": "33.979073",
        "lon": "51.449665"
      },
      {
        "id": 955,
        "name": "خونداب",
        "lat": "33.46076",
        "lon": "50.377113"
      },
      {
        "id": 915,
        "name": "تلک اباد",
        "lat": "33.98216",
        "lon": "51.438255"
      },
      {
        "id": 917,
        "name": "خوانسارک",
        "lat": "32.621876",
        "lon": "51.677"
      },
      {
        "id": 938,
        "name": "پلی اکریل",
        "lat": "32.690903",
        "lon": "51.69923"
      },
      {
        "id": 939,
        "name": "فولادمبارکه",
        "lat": "32.6356",
        "lon": "51.6727"
      },
      {
        "id": 940,
        "name": "کرکوند",
        "lat": "32.813614",
        "lon": "51.680305"
      },
      {
        "id": 941,
        "name": "زاینده رود",
        "lat": "32.621925",
        "lon": "51.61509"
      },
      {
        "id": 942,
        "name": "چم نور",
        "lat": "32.630253",
        "lon": "51.69589"
      },
      {
        "id": 943,
        "name": "کچوییه",
        "lat": "32.498222",
        "lon": "51.77282"
      },
      {
        "id": 944,
        "name": "اشیان",
        "lat": "32.651142",
        "lon": "51.696198"
      },
      {
        "id": 937,
        "name": "دهسرخ",
        "lat": "32.409424",
        "lon": "51.66526"
      },
      {
        "id": 945,
        "name": "طالخونچه",
        "lat": "32.264812",
        "lon": "51.56286"
      },
      {
        "id": 947,
        "name": "رضوانشهر-اصفهان",
        "lat": "32.65773",
        "lon": "51.703537"
      },
      {
        "id": 948,
        "name": "ورپشت",
        "lat": "32.62213",
        "lon": "51.62246"
      },
      {
        "id": 949,
        "name": "عسگران",
        "lat": "32.70103",
        "lon": "51.63388"
      },
      {
        "id": 950,
        "name": "عزیزاباد-اصفهان",
        "lat": "32.65773",
        "lon": "51.703537"
      },
      {
        "id": 951,
        "name": "میراباد-اصفهان",
        "lat": "32.638775",
        "lon": "51.71986"
      },
      {
        "id": 952,
        "name": "حاجی اباد",
        "lat": "32.663013",
        "lon": "51.666504"
      },
      {
        "id": 953,
        "name": "خیراباد-اصفهان",
        "lat": "32.65773",
        "lon": "51.703537"
      },
      {
        "id": 946,
        "name": "تاسیسات سدنکواباد",
        "lat": "32.6422",
        "lon": "51.77834"
      },
      {
        "id": 916,
        "name": "موغار",
        "lat": "32.65773",
        "lon": "51.703537"
      },
      {
        "id": 936,
        "name": "باغ ملک-اصفهان",
        "lat": "32.65607",
        "lon": "51.641823"
      },
      {
        "id": 934,
        "name": "دیزیچه",
        "lat": "33.958874",
        "lon": "51.40254"
      },
      {
        "id": 918,
        "name": "پیربکران",
        "lat": "32.464993",
        "lon": "51.555023"
      },
      {
        "id": 919,
        "name": "کلیشادوسودرجان",
        "lat": "32.549877",
        "lon": "51.536823"
      },
      {
        "id": 920,
        "name": "کرسگان",
        "lat": "32.683743",
        "lon": "51.717644"
      },
      {
        "id": 921,
        "name": "بهاران شهر",
        "lat": "32.690735",
        "lon": "51.6049"
      },
      {
        "id": 922,
        "name": "سهروفیروزان",
        "lat": "32.65773",
        "lon": "51.703537"
      },
      {
        "id": 923,
        "name": "ایمانشهر",
        "lat": "32.48414",
        "lon": "51.46577"
      },
      {
        "id": 924,
        "name": "زازران",
        "lat": "33.622276",
        "lon": "51.272514"
      },
      {
        "id": 935,
        "name": "زیباشهر",
        "lat": "32.383423",
        "lon": "51.566765"
      },
      {
        "id": 925,
        "name": "شرودان",
        "lat": "32.68546",
        "lon": "51.652912"
      },
      {
        "id": 927,
        "name": "ورنامخواست",
        "lat": "32.350304",
        "lon": "51.372402"
      },
      {
        "id": 928,
        "name": "سده لنجان",
        "lat": "32.375492",
        "lon": "51.32187"
      },
      {
        "id": 929,
        "name": "چرمهین",
        "lat": "32.35159",
        "lon": "51.199825"
      },
      {
        "id": 930,
        "name": "باغ بهادران",
        "lat": "32.377823",
        "lon": "51.18658"
      },
      {
        "id": 931,
        "name": "نوگوران",
        "lat": "32.74633",
        "lon": "51.586613"
      },
      {
        "id": 932,
        "name": "چمگردان",
        "lat": "32.392532",
        "lon": "51.339424"
      },
      {
        "id": 933,
        "name": "کرچگان",
        "lat": "32.683743",
        "lon": "51.717644"
      },
      {
        "id": 926,
        "name": "جوجیل",
        "lat": "32.65773",
        "lon": "51.703537"
      },
      {
        "id": 1036,
        "name": "تیکن",
        "lat": "32.65773",
        "lon": "51.703537"
      },
      {
        "id": 1038,
        "name": "رحمت اباد",
        "lat": "32.717583",
        "lon": "51.66989"
      },
      {
        "id": 1037,
        "name": "سنگ سفید",
        "lat": "32.632664",
        "lon": "51.722702"
      },
      {
        "id": 1039,
        "name": "خم پیچ",
        "lat": null,
        "lon": null
      },
      {
        "id": 1040,
        "name": "مهراباد",
        "lat": "32.631996",
        "lon": "51.704918"
      },
      {
        "id": 1041,
        "name": "خشکرود-اصفهان",
        "lat": "32.65773",
        "lon": "51.703537"
      },
      {
        "id": 1042,
        "name": "ویست",
        "lat": "33.34765",
        "lon": "50.112988"
      },
      {
        "id": 1769,
        "name": "چشمه رحمان",
        "lat": "32.65773",
        "lon": "51.703537"
      },
      {
        "id": 998,
        "name": "مورک",
        "lat": "32.65773",
        "lon": "51.703537"
      },
      {
        "id": 1792,
        "name": "سایر",
        "lat": "32.654804",
        "lon": "51.718426"
      }
    ]
  },
  {
    "id": 25,
    "name": "البرز",
    "cities": [
      {
        "id": 207,
        "name": "کرج",
        "lat": "35.82655",
        "lon": "50.957924"
      },
      {
        "id": 1651,
        "name": "مهرشهر",
        "lat": "35.770214",
        "lon": "50.850918"
      },
      {
        "id": 1653,
        "name": "ماهدشت",
        "lat": "35.728134",
        "lon": "50.798206"
      },
      {
        "id": 1661,
        "name": "کمالشهر",
        "lat": "35.8629",
        "lon": "50.871"
      },
      {
        "id": 1663,
        "name": "تنکمان",
        "lat": "35.88843",
        "lon": "50.613243"
      },
      {
        "id": 1666,
        "name": "گلسار",
        "lat": "35.82536",
        "lon": "50.924633"
      },
      {
        "id": 1671,
        "name": "چهارباغ",
        "lat": "35.822987",
        "lon": "50.839695"
      },
      {
        "id": 1669,
        "name": "کوهسار",
        "lat": "35.84842",
        "lon": "50.99972"
      },
      {
        "id": 1647,
        "name": "محمدشهر",
        "lat": "35.74614",
        "lon": "50.891514"
      },
      {
        "id": 1697,
        "name": "سرآبله",
        "lat": "35.81192",
        "lon": "50.86863"
      },
      {
        "id": 1643,
        "name": "گرمدره",
        "lat": "35.7583",
        "lon": "51.0697"
      },
      {
        "id": 1645,
        "name": "مشکین دشت",
        "lat": "35.74517",
        "lon": "50.94511"
      },
      {
        "id": 209,
        "name": "ساوجبلاغ",
        "lat": null,
        "lon": null
      },
      {
        "id": 210,
        "name": "نظرآباد",
        "lat": "35.966263",
        "lon": "50.601128"
      },
      {
        "id": 211,
        "name": "اشتهارد",
        "lat": "35.721348",
        "lon": "50.377586"
      },
      {
        "id": 212,
        "name": "طالقان",
        "lat": "35.81263",
        "lon": "50.98659"
      },
      {
        "id": 213,
        "name": "ادران",
        "lat": "36.211357",
        "lon": "50.139107"
      },
      {
        "id": 1638,
        "name": "هشتگرد",
        "lat": "35.961372",
        "lon": "50.684566"
      },
      {
        "id": 1641,
        "name": "آسارا",
        "lat": "36.029827",
        "lon": "51.169224"
      },
      {
        "id": 208,
        "name": "فردیس",
        "lat": "35.736526",
        "lon": "50.991447"
      }
    ]
  },
  {
    "id": 24,
    "name": "ایلام",
    "cities": [
      {
        "id": 214,
        "name": "ایلام",
        "lat": "33.620457",
        "lon": "46.40214"
      },
      {
        "id": 1816,
        "name": "پاریاب",
        "lat": "32.689922",
        "lon": "47.26636"
      },
      {
        "id": 1815,
        "name": "دول کبودخوشادول",
        "lat": "33.620457",
        "lon": "46.40214"
      },
      {
        "id": 1813,
        "name": "ارکواز",
        "lat": "33.63777",
        "lon": "46.40861"
      },
      {
        "id": 216,
        "name": "چرداول",
        "lat": null,
        "lon": null
      },
      {
        "id": 217,
        "name": "ایوان",
        "lat": "33.826004",
        "lon": "46.30807"
      },
      {
        "id": 218,
        "name": "آبدانان",
        "lat": "32.996468",
        "lon": "47.42521"
      },
      {
        "id": 219,
        "name": "دره شهر",
        "lat": "33.142612",
        "lon": "47.38638"
      },
      {
        "id": 220,
        "name": "مهران",
        "lat": "33.645084",
        "lon": "46.409473"
      },
      {
        "id": 221,
        "name": "ملکشاهی",
        "lat": null,
        "lon": null
      },
      {
        "id": 222,
        "name": "بدره",
        "lat": "33.630585",
        "lon": "46.432606"
      },
      {
        "id": 215,
        "name": "دهلران",
        "lat": "32.685966",
        "lon": "47.274067"
      },
      {
        "id": 223,
        "name": "سیروان",
        "lat": "33.645653",
        "lon": "46.380898"
      },
      {
        "id": 1814,
        "name": "مهر",
        "lat": "33.647022",
        "lon": "46.388218"
      },
      {
        "id": 224,
        "name": "چنارباشی",
        "lat": "33.638496",
        "lon": "46.437843"
      },
      {
        "id": 1705,
        "name": "بیشه دراز",
        "lat": "33.620457",
        "lon": "46.40214"
      },
      {
        "id": 1773,
        "name": "گنداب",
        "lat": "33.620457",
        "lon": "46.40214"
      },
      {
        "id": 1776,
        "name": "ژیور",
        "lat": "33.620457",
        "lon": "46.40214"
      },
      {
        "id": 1778,
        "name": "سراب باغ",
        "lat": "32.897846",
        "lon": "47.575096"
      },
      {
        "id": 1782,
        "name": "مورموری",
        "lat": "32.72559",
        "lon": "47.67606"
      },
      {
        "id": 1784,
        "name": "سیاه گل",
        "lat": "33.376816",
        "lon": "46.594448"
      },
      {
        "id": 1790,
        "name": "اب انار",
        "lat": "33.640125",
        "lon": "46.388245"
      },
      {
        "id": 1793,
        "name": "چم هندی",
        "lat": "33.620033",
        "lon": "46.428387"
      },
      {
        "id": 1768,
        "name": "شهرک ولیعصر",
        "lat": null,
        "lon": null
      },
      {
        "id": 1795,
        "name": "موسیان",
        "lat": "32.520794",
        "lon": "47.37667"
      },
      {
        "id": 1802,
        "name": "میمه",
        "lat": "33.226704",
        "lon": "46.917965"
      },
      {
        "id": 1807,
        "name": "پهله",
        "lat": "33.010403",
        "lon": "46.883614"
      },
      {
        "id": 1808,
        "name": "عین خوش",
        "lat": "33.620457",
        "lon": "46.40214"
      },
      {
        "id": 1809,
        "name": "دشت عباس",
        "lat": null,
        "lon": null
      },
      {
        "id": 1810,
        "name": "اسلامیه",
        "lat": null,
        "lon": null
      },
      {
        "id": 1811,
        "name": "صالح آباد",
        "lat": "33.502495",
        "lon": "46.174534"
      },
      {
        "id": 1812,
        "name": "دلگشا",
        "lat": "33.40564",
        "lon": "46.592823"
      },
      {
        "id": 1800,
        "name": "گولاب",
        "lat": "33.620457",
        "lon": "46.40214"
      },
      {
        "id": 1698,
        "name": "سرآبله",
        "lat": "33.76533",
        "lon": "46.56378"
      },
      {
        "id": 1767,
        "name": "چشمه شیرین",
        "lat": "33.273266",
        "lon": "47.1607"
      },
      {
        "id": 1762,
        "name": "ماژین",
        "lat": "32.951202",
        "lon": "47.788"
      },
      {
        "id": 1707,
        "name": "چشمه کبود",
        "lat": null,
        "lon": null
      },
      {
        "id": 1710,
        "name": "بانویزه",
        "lat": "33.569416",
        "lon": "46.79995"
      },
      {
        "id": 1711,
        "name": "چمن سیدمحمد",
        "lat": "35.69713517031917",
        "lon": "51.3771356810132"
      },
      {
        "id": 1714,
        "name": "هفت چشمه",
        "lat": null,
        "lon": null
      },
      {
        "id": 1717,
        "name": "شورابه ملک",
        "lat": "33.636993",
        "lon": "46.3963"
      },
      {
        "id": 1719,
        "name": "چوار",
        "lat": "33.694378",
        "lon": "46.29739"
      },
      {
        "id": 1730,
        "name": "کلان",
        "lat": "33.376816",
        "lon": "46.594448"
      },
      {
        "id": 1763,
        "name": "ارمو",
        "lat": "33.620457",
        "lon": "46.40214"
      },
      {
        "id": 1733,
        "name": "زرنه",
        "lat": "33.925896",
        "lon": "46.18593"
      },
      {
        "id": 1740,
        "name": "توحید",
        "lat": "33.635036",
        "lon": "46.39604"
      },
      {
        "id": 1742,
        "name": "بلاوه تره سفلی",
        "lat": "33.833607",
        "lon": "46.291973"
      },
      {
        "id": 1744,
        "name": "لومار",
        "lat": "33.56657",
        "lon": "46.813316"
      },
      {
        "id": 1748,
        "name": "آسمان آباد",
        "lat": "33.847363",
        "lon": "46.46567"
      },
      {
        "id": 1750,
        "name": "سراب کارزان",
        "lat": "33.637596",
        "lon": "46.43712"
      },
      {
        "id": 1759,
        "name": "سرتنگ",
        "lat": null,
        "lon": null
      },
      {
        "id": 1760,
        "name": "علی اباد",
        "lat": "33.6301",
        "lon": "46.382965"
      },
      {
        "id": 1738,
        "name": "شباب",
        "lat": "33.750694",
        "lon": "46.636307"
      }
    ]
  },
  {
    "id": 23,
    "name": "بوشهر",
    "cities": [
      {
        "id": 225,
        "name": "بوشهر",
        "lat": "28.934614",
        "lon": "50.856117"
      },
      {
        "id": 1908,
        "name": "بادوله",
        "lat": "28.392143",
        "lon": "51.503452"
      },
      {
        "id": 1910,
        "name": "شنبه",
        "lat": "28.39548",
        "lon": "51.76453"
      },
      {
        "id": 1911,
        "name": "کاکی",
        "lat": "28.34326",
        "lon": "51.522728"
      },
      {
        "id": 1912,
        "name": "خارک",
        "lat": "28.75877",
        "lon": "51.068977"
      },
      {
        "id": 1916,
        "name": "دلوار",
        "lat": "28.974926",
        "lon": "50.826633"
      },
      {
        "id": 1917,
        "name": "بنه گز",
        "lat": "27.821314",
        "lon": "52.330956"
      },
      {
        "id": 1918,
        "name": "اباد",
        "lat": null,
        "lon": null
      },
      {
        "id": 1896,
        "name": "سیراف",
        "lat": "27.4768",
        "lon": "52.644444"
      },
      {
        "id": 1920,
        "name": "بردخون",
        "lat": "28.060692",
        "lon": "51.47566"
      },
      {
        "id": 1922,
        "name": "بندردیر",
        "lat": "27.842037",
        "lon": "51.93041"
      },
      {
        "id": 1923,
        "name": "آبدان",
        "lat": "28.080017",
        "lon": "51.76863"
      },
      {
        "id": 1924,
        "name": "انارستان",
        "lat": "28.03383",
        "lon": "52.064934"
      },
      {
        "id": 1925,
        "name": "ریز",
        "lat": "28.052183",
        "lon": "52.081284"
      },
      {
        "id": 1926,
        "name": "بنک",
        "lat": "27.877586",
        "lon": "52.029743"
      },
      {
        "id": 1927,
        "name": "بندرکنگان",
        "lat": "27.836823",
        "lon": "52.068077"
      },
      {
        "id": 1928,
        "name": "ابگرمک",
        "lat": "28.888477",
        "lon": "51.28828"
      },
      {
        "id": 1921,
        "name": "بردستان",
        "lat": "27.82465",
        "lon": "52.33188"
      },
      {
        "id": 1929,
        "name": "دالکی",
        "lat": "29.430214",
        "lon": "51.291393"
      },
      {
        "id": 1894,
        "name": "چغادک",
        "lat": "28.97824",
        "lon": "51.024296"
      },
      {
        "id": 1889,
        "name": "شول",
        "lat": "28.934614",
        "lon": "50.856117"
      },
      {
        "id": 226,
        "name": "دشتستان",
        "lat": "28.98495",
        "lon": "50.834595"
      },
      {
        "id": 227,
        "name": "کنگان",
        "lat": "28.972952",
        "lon": "50.855198"
      },
      {
        "id": 228,
        "name": "گناوه",
        "lat": "29.503952",
        "lon": "50.91369"
      },
      {
        "id": 229,
        "name": "دشتی",
        "lat": "29.364943",
        "lon": "51.082687"
      },
      {
        "id": 230,
        "name": "تنگستان",
        "lat": "28.984543",
        "lon": "50.83483"
      },
      {
        "id": 231,
        "name": "عسلویه",
        "lat": "28.969439",
        "lon": "50.85157"
      },
      {
        "id": 1893,
        "name": "امام حسن",
        "lat": "28.339132",
        "lon": "51.533607"
      },
      {
        "id": 232,
        "name": "جم",
        "lat": "28.97316",
        "lon": "50.84457"
      },
      {
        "id": 234,
        "name": "دیلم",
        "lat": "30.054221",
        "lon": "50.162157"
      },
      {
        "id": 235,
        "name": "خورموج",
        "lat": "28.052324",
        "lon": "51.79606"
      },
      {
        "id": 1875,
        "name": "اهرم",
        "lat": "28.880705",
        "lon": "51.28132"
      },
      {
        "id": 1877,
        "name": "برازجان",
        "lat": "29.503952",
        "lon": "50.91369"
      },
      {
        "id": 1880,
        "name": "نخل تقی",
        "lat": "27.50073",
        "lon": "52.58647"
      },
      {
        "id": 1885,
        "name": "بندر ریگ",
        "lat": "29.488974",
        "lon": "50.62933"
      },
      {
        "id": 1887,
        "name": "چهارروستایی",
        "lat": "28.934614",
        "lon": "50.856117"
      },
      {
        "id": 233,
        "name": "دیر",
        "lat": "28.96884",
        "lon": "50.849537"
      },
      {
        "id": 1930,
        "name": "شبانکاره",
        "lat": "29.465866",
        "lon": "50.99198"
      },
      {
        "id": 1932,
        "name": "سعدآباد",
        "lat": "29.387257",
        "lon": "51.115143"
      },
      {
        "id": 1931,
        "name": "آبپخش",
        "lat": "29.365011",
        "lon": "51.065372"
      },
      {
        "id": 1933,
        "name": "وحدتیه",
        "lat": "27.49013",
        "lon": "52.5908"
      },
      {
        "id": 1934,
        "name": "تنگ ارم",
        "lat": "29.153675",
        "lon": "51.526016"
      },
      {
        "id": 1935,
        "name": "کلمه",
        "lat": "28.942062",
        "lon": "51.458977"
      }
    ]
  },
  {
    "id": 1,
    "name": "تهران",
    "cities": [
      {
        "id": 1,
        "name": "تهران",
        "lat": "35.685963",
        "lon": "51.3947"
      },
      {
        "id": 585,
        "name": "منطقه جنوب ( 18 پستی )",
        "lat": "35.685963",
        "lon": "51.3947"
      },
      {
        "id": 1673,
        "name": "رودهن",
        "lat": "35.73442",
        "lon": "51.916378"
      },
      {
        "id": 1674,
        "name": "آبعلی",
        "lat": "35.7844",
        "lon": "51.360195"
      },
      {
        "id": 1675,
        "name": "کیلان",
        "lat": "35.73883",
        "lon": "51.31398"
      },
      {
        "id": 1676,
        "name": "آبسرد",
        "lat": "35.681786",
        "lon": "51.431816"
      },
      {
        "id": 1677,
        "name": "سربندان",
        "lat": "35.8281",
        "lon": "51.4267"
      },
      {
        "id": 1678,
        "name": "مهرآباد",
        "lat": "35.672436",
        "lon": "51.329327"
      },
      {
        "id": 1679,
        "name": "مشا",
        "lat": "35.762108",
        "lon": "51.31125"
      },
      {
        "id": 1672,
        "name": "جابان",
        "lat": "35.787106",
        "lon": "51.468826"
      },
      {
        "id": 1680,
        "name": "مرا",
        "lat": "35.778316",
        "lon": "51.31951"
      },
      {
        "id": 1682,
        "name": "درده",
        "lat": "35.69211",
        "lon": "51.40434"
      },
      {
        "id": 1683,
        "name": "حصاربن",
        "lat": "35.75891",
        "lon": "51.440037"
      },
      {
        "id": 1684,
        "name": "ارجمند",
        "lat": "35.68907",
        "lon": "51.47899"
      },
      {
        "id": 1685,
        "name": "امیریه-تهران",
        "lat": "35.698605",
        "lon": "51.49494"
      },
      {
        "id": 2772,
        "name": "حسن آباد-تهران",
        "lat": "35.564083",
        "lon": "51.256878"
      },
      {
        "id": 1681,
        "name": "هرانده",
        "lat": "35.658703",
        "lon": "51.414433"
      },
      {
        "id": 1670,
        "name": "اسماعیل آباد",
        "lat": "35.6099",
        "lon": "51.325542"
      },
      {
        "id": 1667,
        "name": "سبزدشت",
        "lat": "35.52549",
        "lon": "51.174156"
      },
      {
        "id": 1644,
        "name": "قلعه خواجه-تهران",
        "lat": "35.69211",
        "lon": "51.40434"
      },
      {
        "id": 1646,
        "name": "شهرک عباس آباد",
        "lat": "35.69211",
        "lon": "51.40434"
      },
      {
        "id": 1648,
        "name": "داوداباد",
        "lat": "35.686596",
        "lon": "51.46948"
      },
      {
        "id": 1649,
        "name": "شریف آباد",
        "lat": "35.72888",
        "lon": "51.554855"
      },
      {
        "id": 1650,
        "name": "پارچین",
        "lat": "35.67018",
        "lon": "51.29298"
      },
      {
        "id": 1652,
        "name": "حصارامیر",
        "lat": null,
        "lon": null
      },
      {
        "id": 1654,
        "name": "خاتون اباد-تهران",
        "lat": "35.664852",
        "lon": "51.377495"
      },
      {
        "id": 1668,
        "name": "احمدآبادجانسپار",
        "lat": "35.813587",
        "lon": "51.608074"
      },
      {
        "id": 1655,
        "name": "نصیرآباد",
        "lat": "35.598396",
        "lon": "51.149376"
      },
      {
        "id": 1657,
        "name": "کلمه-تهران",
        "lat": "35.534843",
        "lon": "51.174442"
      },
      {
        "id": 1658,
        "name": "پرند",
        "lat": "35.75809",
        "lon": "51.230534"
      },
      {
        "id": 1659,
        "name": "شهر صنعتی پرند",
        "lat": "35.47563",
        "lon": "50.962067"
      },
      {
        "id": 1660,
        "name": "سلطان اباد-تهران",
        "lat": "35.68538",
        "lon": "51.45842"
      },
      {
        "id": 1662,
        "name": "حصارک پایین",
        "lat": "35.537235",
        "lon": "51.182228"
      },
      {
        "id": 1664,
        "name": "نسیم شهر",
        "lat": "35.55824",
        "lon": "51.162037"
      },
      {
        "id": 1665,
        "name": "حصارک بالا",
        "lat": "35.5496",
        "lon": "51.16203"
      },
      {
        "id": 1656,
        "name": "گلستان",
        "lat": "35.732735",
        "lon": "51.48539"
      },
      {
        "id": 1642,
        "name": "کریم اباد-تهران",
        "lat": "35.80205",
        "lon": "51.46726"
      },
      {
        "id": 1640,
        "name": "جلیل اباد",
        "lat": "35.690895",
        "lon": "51.39177"
      },
      {
        "id": 1637,
        "name": "جواد آباد",
        "lat": "35.726597",
        "lon": "51.55699"
      },
      {
        "id": 122,
        "name": "شمیرانات",
        "lat": "35.597595",
        "lon": "51.45328"
      },
      {
        "id": 123,
        "name": "فیروزکوه",
        "lat": "35.810772",
        "lon": "51.41403"
      },
      {
        "id": 124,
        "name": "جاجرود(خسروآباد)",
        "lat": "35.70303",
        "lon": "51.492687"
      },
      {
        "id": 734,
        "name": "لواسان",
        "lat": "35.798893",
        "lon": "51.474785"
      },
      {
        "id": 735,
        "name": "بومهن",
        "lat": "35.73836",
        "lon": "51.86233"
      },
      {
        "id": 736,
        "name": "شهرصنعتی خرمدشت",
        "lat": "35.73504",
        "lon": "51.770027"
      },
      {
        "id": 737,
        "name": "باقر شهر",
        "lat": "35.722134",
        "lon": "51.33525"
      },
      {
        "id": 121,
        "name": "پیشوا",
        "lat": "35.657005",
        "lon": "51.45562"
      },
      {
        "id": 738,
        "name": "جعفرابادباقراف",
        "lat": "35.689217",
        "lon": "51.463253"
      },
      {
        "id": 740,
        "name": "کهریزک",
        "lat": "35.32584",
        "lon": "51.62943"
      },
      {
        "id": 741,
        "name": "طورقوزاباد",
        "lat": "35.772167",
        "lon": "51.31897"
      },
      {
        "id": 742,
        "name": "قاسم ابادشوراباد",
        "lat": "35.70678",
        "lon": "51.49478"
      },
      {
        "id": 743,
        "name": "شمس اباد",
        "lat": "35.742817",
        "lon": "51.469864"
      },
      {
        "id": 744,
        "name": "ابراهیم اباد-تهران",
        "lat": "35.73148",
        "lon": "51.459885"
      },
      {
        "id": 745,
        "name": "چرمشهر",
        "lat": "35.73544",
        "lon": "51.42986"
      },
      {
        "id": 746,
        "name": "قلعه محمدعلی خان",
        "lat": null,
        "lon": null
      },
      {
        "id": 739,
        "name": "مرقدامام ره",
        "lat": "35.74342",
        "lon": "51.564903"
      },
      {
        "id": 747,
        "name": "فرودگاه امام خمینی",
        "lat": null,
        "lon": null
      },
      {
        "id": 120,
        "name": "دماوند",
        "lat": "35.70199",
        "lon": "51.448185"
      },
      {
        "id": 118,
        "name": "قرچک",
        "lat": "35.426754",
        "lon": "51.58178"
      },
      {
        "id": 4,
        "name": "منطقه جنوب شرق ( 11 پستی )",
        "lat": "35.685963",
        "lon": "51.3947"
      },
      {
        "id": 579,
        "name": "منطقه جنوب شرق ( 17 پستی )",
        "lat": "35.685963",
        "lon": "51.3947"
      },
      {
        "id": 580,
        "name": "منطقه جنوب غرب ( 13 پستی )",
        "lat": "35.685963",
        "lon": "51.3947"
      },
      {
        "id": 584,
        "name": "منطقه شمال شرق ( 16 پستی )",
        "lat": "35.685963",
        "lon": "51.3947"
      },
      {
        "id": 583,
        "name": "منطقه شمال ( 19 پستی )",
        "lat": "35.685963",
        "lon": "51.3947"
      },
      {
        "id": 582,
        "name": "منطقه شمال ( 15 پستی )",
        "lat": "35.685963",
        "lon": "51.3947"
      },
      {
        "id": 581,
        "name": "منطقه شمال غرب ( 14 پستی )",
        "lat": "35.685963",
        "lon": "51.3947"
      },
      {
        "id": 119,
        "name": "پردیس",
        "lat": "35.714054",
        "lon": "51.312214"
      },
      {
        "id": 9,
        "name": "شهریار",
        "lat": "35.795383",
        "lon": "51.397945"
      },
      {
        "id": 111,
        "name": "بهارستان",
        "lat": "35.68653942925056",
        "lon": "51.33248862586921"
      },
      {
        "id": 112,
        "name": "ملارد",
        "lat": "35.646103",
        "lon": "50.97447"
      },
      {
        "id": 113,
        "name": "پاکدشت",
        "lat": "35.49353",
        "lon": "51.677505"
      },
      {
        "id": 114,
        "name": "ری",
        "lat": "35.684067",
        "lon": "51.436436"
      },
      {
        "id": 115,
        "name": "قدس",
        "lat": "35.6246",
        "lon": "51.454453"
      },
      {
        "id": 116,
        "name": "رباط کریم",
        "lat": "35.666763",
        "lon": "51.395786"
      },
      {
        "id": 117,
        "name": "ورامین",
        "lat": "35.59705",
        "lon": "51.439762"
      },
      {
        "id": 40,
        "name": "اسلامشهر",
        "lat": "35.534286",
        "lon": "51.24787"
      },
      {
        "id": 1639,
        "name": "خاوه",
        "lat": "35.474",
        "lon": "51.654797"
      },
      {
        "id": 748,
        "name": "وهن اباد",
        "lat": null,
        "lon": null
      },
      {
        "id": 752,
        "name": "گل تپه کبیر",
        "lat": "35.80544",
        "lon": "51.43827"
      },
      {
        "id": 823,
        "name": "چهاردانگه",
        "lat": "35.610847",
        "lon": "51.30666"
      },
      {
        "id": 824,
        "name": "سعیدآباد",
        "lat": "35.64998",
        "lon": "51.283237"
      },
      {
        "id": 825,
        "name": "فشم",
        "lat": "35.780876",
        "lon": "51.454865"
      },
      {
        "id": 826,
        "name": "لواسان بزرگ",
        "lat": "35.801125",
        "lon": "51.658794"
      },
      {
        "id": 828,
        "name": "باغستان",
        "lat": "35.652477",
        "lon": "51.07396"
      },
      {
        "id": 827,
        "name": "صباشهر",
        "lat": "35.748413",
        "lon": "51.54663"
      },
      {
        "id": 1627,
        "name": "شاهدشهر",
        "lat": "35.57673",
        "lon": "51.084"
      },
      {
        "id": 822,
        "name": "شاطره",
        "lat": null,
        "lon": null
      },
      {
        "id": 1628,
        "name": "فردوسیه",
        "lat": "35.686",
        "lon": "51.4207"
      },
      {
        "id": 1630,
        "name": "لم اباد",
        "lat": "35.70986",
        "lon": "51.44914"
      },
      {
        "id": 1631,
        "name": "قلعه سین",
        "lat": "35.69211",
        "lon": "51.40434"
      },
      {
        "id": 1632,
        "name": "عسگرابادعباسی",
        "lat": null,
        "lon": null
      },
      {
        "id": 1633,
        "name": "دهماسین",
        "lat": "35.69211",
        "lon": "51.40434"
      },
      {
        "id": 1634,
        "name": "باغخواص",
        "lat": "35.69211",
        "lon": "51.40434"
      },
      {
        "id": 1636,
        "name": "ابباریک",
        "lat": "35.772808",
        "lon": "51.48474"
      },
      {
        "id": 1635,
        "name": "ایجدان",
        "lat": "35.69211",
        "lon": "51.40434"
      },
      {
        "id": 1629,
        "name": "وحیدیه",
        "lat": "35.70899",
        "lon": "51.46415"
      },
      {
        "id": 749,
        "name": "قلعه نوخالصه",
        "lat": null,
        "lon": null
      },
      {
        "id": 821,
        "name": "صالح آباد-تهران",
        "lat": "35.69211",
        "lon": "51.40434"
      },
      {
        "id": 819,
        "name": "فیروزبهرام",
        "lat": "35.65761",
        "lon": "51.2541"
      },
      {
        "id": 754,
        "name": "محمودابادپیرزاده",
        "lat": "35.438545",
        "lon": "51.559097"
      },
      {
        "id": 759,
        "name": "فرون اباد",
        "lat": "35.51803",
        "lon": "51.62039"
      },
      {
        "id": 761,
        "name": "خاورشهر",
        "lat": null,
        "lon": null
      },
      {
        "id": 765,
        "name": "اسلام اباد-تهران",
        "lat": "35.63392",
        "lon": "51.484085"
      },
      {
        "id": 766,
        "name": "لپه زنگ",
        "lat": "35.715984",
        "lon": "51.874084"
      },
      {
        "id": 770,
        "name": "قیامدشت",
        "lat": "35.518627",
        "lon": "51.633373"
      },
      {
        "id": 773,
        "name": "قو,چ حصار",
        "lat": "35.549538",
        "lon": "51.441696"
      },
      {
        "id": 820,
        "name": "گلدسته",
        "lat": "35.742554",
        "lon": "51.520218"
      },
      {
        "id": 775,
        "name": "خلازیر",
        "lat": "35.634064",
        "lon": "51.347816"
      },
      {
        "id": 780,
        "name": "نصیرشهر",
        "lat": "35.72497",
        "lon": "51.36873"
      },
      {
        "id": 784,
        "name": "شهرک صنعتی نصیرشهر",
        "lat": "35.471684",
        "lon": "51.11605"
      },
      {
        "id": 787,
        "name": "شهرک قلعه میر",
        "lat": "35.6487",
        "lon": "50.99429"
      },
      {
        "id": 791,
        "name": "صفادشت",
        "lat": "35.683388",
        "lon": "50.847717"
      },
      {
        "id": 794,
        "name": "اندیشه",
        "lat": "35.73721",
        "lon": "51.266556"
      },
      {
        "id": 797,
        "name": "گرمدره-تهران",
        "lat": "35.69211",
        "lon": "51.40434"
      },
      {
        "id": 800,
        "name": "احمدابادمستوفی",
        "lat": "35.632027",
        "lon": "51.213627"
      },
      {
        "id": 779,
        "name": "تجریش",
        "lat": "35.778606",
        "lon": "51.423447"
      },
      {
        "id": 109,
        "name": "شمشک-دیزین",
        "lat": "35.6555",
        "lon": "50.997684"
      }
    ]
  },
  {
    "id": 22,
    "name": "چهارمحال و بختیاری",
    "cities": [
      {
        "id": 236,
        "name": "شهرکرد",
        "lat": "32.21349",
        "lon": "51.122246"
      },
      {
        "id": 1373,
        "name": "چوله دان",
        "lat": "31.97477",
        "lon": "51.284245"
      },
      {
        "id": 1374,
        "name": "دشتک",
        "lat": "32.1599",
        "lon": "50.459476"
      },
      {
        "id": 1375,
        "name": "آلونی",
        "lat": "31.552376",
        "lon": "51.057983"
      },
      {
        "id": 1376,
        "name": "مال خلیفه",
        "lat": "31.29367",
        "lon": "51.26015"
      },
      {
        "id": 1377,
        "name": "چمن بید",
        "lat": "32.271183",
        "lon": "50.98678"
      },
      {
        "id": 1378,
        "name": "سردشت-چهارمحال و بختیاری",
        "lat": null,
        "lon": null
      },
      {
        "id": 1379,
        "name": "منج",
        "lat": "31.536556",
        "lon": "50.629383"
      },
      {
        "id": 1380,
        "name": "سایر",
        "lat": null,
        "lon": null
      },
      {
        "id": 1372,
        "name": "گل سفید",
        "lat": null,
        "lon": null
      },
      {
        "id": 1371,
        "name": "ناغان",
        "lat": "31.936392",
        "lon": "50.72744"
      },
      {
        "id": 1369,
        "name": "گندمان",
        "lat": "31.970936",
        "lon": "51.2849"
      },
      {
        "id": 1370,
        "name": "امام قیس",
        "lat": "32.34902",
        "lon": "50.865604"
      },
      {
        "id": 1352,
        "name": "گهرو",
        "lat": "32.008244",
        "lon": "50.885674"
      },
      {
        "id": 1353,
        "name": "سورشجان",
        "lat": "32.31523",
        "lon": "50.67812"
      },
      {
        "id": 1354,
        "name": "مرغملک",
        "lat": null,
        "lon": null
      },
      {
        "id": 1355,
        "name": "سودجان",
        "lat": "32.52189",
        "lon": "50.39857"
      },
      {
        "id": 1356,
        "name": "نافچ",
        "lat": "32.423786",
        "lon": "50.788918"
      },
      {
        "id": 1357,
        "name": "وردنجان",
        "lat": "32.47639",
        "lon": "50.767365"
      },
      {
        "id": 1359,
        "name": "پردنجان",
        "lat": "32.25434",
        "lon": "50.595695"
      },
      {
        "id": 1351,
        "name": "شلمزار",
        "lat": "32.04848",
        "lon": "50.81716"
      },